disasterno,Country,Location,Disaster type,Year,Date,Total deaths,Latitude,Longitude
1999-9388,Djibouti,Ali Sabieh,Drought,2001,2001-06-01,0.0,11.24525574,42.90894354
1999-9388,Sudan,Northern Darfur,Drought,2000,2000-01-01,0.0,12.34528025,23.438724
1999-9388,Somalia,Ceel Barde,Drought,2000,2000-01-01,21.0,4.663143716,43.99143085
2000-0012,Mozambique,Matutuine,Flood,2000,2000-01-26,800.0,-26.52435974,32.56154951
2000-0012,Mozambique,Manhica,Flood,2000,2000-01-26,800.0,-25.30894953,32.82550277
2000-0012,Mozambique,Magude,Flood,2000,2000-01-26,800.0,-24.70185045,32.43940654
2000-0012,Mozambique,Chibuto,Flood,2000,2000-01-26,800.0,-24.30044317,33.61295063
2000-0012,Mozambique,Chokwe,Flood,2000,2000-01-26,800.0,-24.56177412,32.95529265
2000-0012,Mozambique,Inhambane,Flood,2000,2000-01-26,800.0,-22.80887901,34.51464613
2000-0012,Mozambique,Sofala,Flood,2000,2000-01-26,800.0,-19.06197641,34.67534108
2000-0012,Mozambique,Manica,Flood,2000,2000-01-26,800.0,-19.02183442,33.42940088
2000-0048,Botswana,Selibe-Phikwe,Flood,2000,2000-02-01,3.0,-21.97918814,27.84895927
2000-0083,Zimbabwe,Chimanimani,Flood,2000,2000-01-26,70.0,-19.77967026,32.72024341
2000-0107,Madagascar,Mahanoro,Storm,2000,2000-02-17,130.0,-20.03218541,48.51810197
2000-0107,Madagascar,Vatomandry,Storm,2000,2000-02-17,130.0,-19.36169202,48.77693924
2000-0107,Madagascar,Andramasina,Storm,2000,2000-02-17,130.0,-19.29995223,47.74641137
2000-0107,Madagascar,Ambatolampy,Storm,2000,2000-02-17,130.0,-19.45776525,47.56519102
2000-0107,Madagascar,Antalaha,Storm,2000,2000-02-17,130.0,-15.22264112,50.14276934
2000-0107,Madagascar,Sambava,Storm,2000,2000-02-17,130.0,-14.21476942,49.78464448
2000-0107,Madagascar,Andapa,Storm,2000,2000-02-17,130.0,-14.56811087,49.55531552
2000-0107,Madagascar,Morondava,Storm,2000,2000-02-17,130.0,-20.57918562,44.38249914
2000-0178,Madagascar,Antalaha,Storm,2000,2000-04-02,23.0,-15.22264112,50.14276934
2000-0178,Madagascar,Sambava,Storm,2000,2000-04-02,23.0,-14.21476942,49.78464448
2000-0178,Mozambique,Angoche,Storm,2000,2000-04-02,1.0,-16.08854415,39.80534615
2000-0178,Mozambique,Moma,Storm,2000,2000-04-02,1.0,-16.35531865,39.26942077
2000-0259,Somalia,Jowhar,Flood,2000,2000-05-01,0.0,2.984045536,45.56420233
2000-0501,Niger,Dosso,Flood,2000,2000-07-01,2.0,13.19825836,3.541820152
2000-0753,Mozambique,Zambezia,Storm,2000,2000-11-18,9.0,-16.65133304,36.98316268
2000-0841,Morocco,Tangiers,Flood,2000,2000-12-22,6.0,35.55198867,-5.903672566
2000-0841,Morocco,Chefchaouen,Flood,2000,2000-12-22,6.0,35.03866215,-5.100489265
2000-0841,Morocco,Settat,Flood,2000,2000-12-22,6.0,32.95825328,-7.46207695
2000-9309,Madagascar,Ambovombe-Androy,Drought,2000,2000-06-01,0.0,-24.8628715,45.77960465
2001-0019,Mozambique,Namacurra,Flood,2001,2001-01-01,79.0,-17.48051344,37.07546732
2001-0019,Mozambique,Pebane,Flood,2001,2001-01-01,79.0,-16.71857224,38.54005849
2001-0019,Mozambique,Maganja da Costa,Flood,2001,2001-01-01,79.0,-17.10548625,37.62560237
2001-0019,Mozambique,Morrumbala,Flood,2001,2001-01-01,79.0,-17.05499807,35.78947109
2001-0019,Mozambique,Mopeia,Flood,2001,2001-01-01,79.0,-17.83042469,36.05903694
2001-0019,Mozambique,Buzi,Flood,2001,2001-01-01,79.0,-20.02535278,34.35992179
2001-0019,Mozambique,Chibabava,Flood,2001,2001-01-01,79.0,-20.39074454,33.88663631
2001-0019,Mozambique,Marromeu,Flood,2001,2001-01-01,79.0,-18.43526513,35.75569246
2001-0019,Mozambique,Caia,Flood,2001,2001-01-01,79.0,-17.78400452,35.00329921
2001-0019,Mozambique,Zumbo,Flood,2001,2001-01-01,79.0,-15.22877349,30.93504634
2001-0019,Mozambique,Magoe,Flood,2001,2001-01-01,79.0,-15.90174503,31.36342602
2001-0019,Mozambique,Macanga,Flood,2001,2001-01-01,79.0,-14.80220221,33.53422828
2001-0025,Malawi,Chikwawa,Flood,2001,2001-01-01,59.0,-16.16437396,34.70894576
2001-0091,Zambia,Eastern,Flood,2001,2001-02-01,5.0,-13.60036646,31.88283639
2001-0146,Angola,Luacho,Flood,2001,2001-04-02,48.0,-13.1693539,13.11089543
2001-0146,Angola,Bibala,Flood,2001,2001-04-02,48.0,-14.68521714,13.14031506
2001-0146,Angola,Lubango,Flood,2001,2001-04-02,48.0,-14.73068596,13.83134184
2001-0146,Angola,Bengo province,Flood,2001,2001-04-02,48.0,-8.977544048,13.88121069
2001-0314,Ghana,Nsawam,Flood,2001,2001-06-27,12.0,5.810592442,-0.275714892
2001-0417,Sudan,Kassala,Flood,2001,2001-08-06,3.0,15.98884127,35.75058371
2001-0417,Sudan,Sennar,Flood,2001,2001-08-06,3.0,12.89651755,34.0528914
2001-0448,Ethiopia,Dubti,Flood,2001,2001-08-10,5.0,11.6841897,41.10159881
2001-0494,Nigeria,Jigawa,Flood,2001,2001-08-27,200.0,12.21567495,9.550513513
2001-0521,Chad,Logone Oriental,Flood,2001,2001-08-19,100.0,8.203300409,16.40898281
2001-0521,Chad,Salamat,Flood,2001,2001-08-19,100.0,10.81028419,20.58377886
2001-0524,Mali,Sikasso,Flood,2001,2001-08-18,2.0,11.43183956,-6.559005219
2001-0524,Mali,Kidal,Flood,2001,2001-08-18,2.0,19.47361032,1.144092946
2001-0524,Mali,Mopti,Flood,2001,2001-08-18,2.0,14.70486596,-3.512185674
2001-0524,Mali,Koulikoro,Flood,2001,2001-08-18,2.0,13.62428613,-7.645623989
2001-0524,Mali,Bamako,Flood,2001,2001-08-18,2.0,12.61101118,-7.977638549
2001-0620,Algeria,Ain Benian,Flood,2001,2001-11-10,921.0,36.35101602,2.37817825
2001-0620,Algeria,Bouzareah,Flood,2001,2001-11-10,921.0,36.78232484,3.021624121
2001-0620,Algeria,El Marsa,Flood,2001,2001-11-10,921.0,36.40397212,0.95661681
2001-0620,Algeria,Moussadek,Flood,2001,2001-11-10,921.0,36.34918407,1.028662332
2001-0620,Algeria,Tenes,Flood,2001,2001-11-10,921.0,36.50594893,1.325552719
2001-0620,Algeria,Sidi Abderrahmane,Flood,2001,2001-11-10,921.0,36.4778584,1.13605408
2001-0620,Algeria,Dahra,Flood,2001,2001-11-10,921.0,36.27282686,0.78596433
2001-0620,Algeria,Taougrit,Flood,2001,2001-11-10,921.0,36.28695636,0.927995317
2001-0620,Algeria,Tadjena,Flood,2001,2001-11-10,921.0,36.33581574,1.119139245
2001-0620,Algeria,Breira,Flood,2001,2001-11-10,921.0,36.45005863,1.58857617
2001-0620,Algeria,Oued Goussine,Flood,2001,2001-11-10,921.0,36.49933598,1.461219662
2001-0620,Algeria,Zeboudja,Flood,2001,2001-11-10,921.0,36.38242933,1.468400171
2001-0620,Algeria,El Mamounia,Flood,2001,2001-11-10,921.0,35.45677719,0.144898165
2001-0620,Algeria,Ain Fares,Flood,2001,2001-11-10,921.0,34.73163786,4.497049448
2001-0620,Algeria,Oued El Abtal,Flood,2001,2001-11-10,921.0,35.43524062,0.658436623
2001-0620,Algeria,Ain Boudinar,Flood,2001,2001-11-10,921.0,35.99616469,0.208284974
2001-0620,Algeria,Sidi Lakhdar,Flood,2001,2001-11-10,921.0,36.25783764,2.148501112
2001-0620,Algeria,Sidi Chahmi,Flood,2001,2001-11-10,921.0,35.66348654,-0.523967774
2001-0620,Algeria,Gdyel,Flood,2001,2001-11-10,921.0,35.7936252,-0.442259937
2001-0620,Algeria,Ain Turk,Flood,2001,2001-11-10,921.0,36.41246916,3.824787187
2001-0620,Algeria,El Ancer,Flood,2001,2001-11-10,921.0,36.7905942,6.173477348
2001-0620,Algeria,Hamri,Flood,2001,2001-11-10,921.0,35.11848772,4.070914528
2001-0620,Algeria,Sidi Khettab,Flood,2001,2001-11-10,921.0,35.92561843,0.542161359
2001-0620,Algeria,El Hassasna,Flood,2001,2001-11-10,921.0,34.77929332,0.364570312
2001-0620,Algeria,Sidi Ghiles,Flood,2001,2001-11-10,921.0,36.56044552,2.11496644
2001-0620,Algeria,Damous,Flood,2001,2001-11-10,921.0,36.50957062,1.713901997
2001-0620,Algeria,Aghbal,Flood,2001,2001-11-10,921.0,36.50672792,1.845458487
2001-0620,Algeria,Tigzirt,Flood,2001,2001-11-10,921.0,36.86280204,4.13730847
2001-0620,Algeria,Azzefoun,Flood,2001,2001-11-10,921.0,36.86935657,4.398046471
2001-0620,Algeria,Mezrana,Flood,2001,2001-11-10,921.0,35.97846063,2.922806182
2001-0620,Algeria,Sebdou,Flood,2001,2001-11-10,921.0,34.63722275,-1.277641574
2001-0620,Algeria,Sidi Djilali,Flood,2001,2001-11-10,921.0,34.42666452,-1.456474214
2001-0620,Algeria,Maghnia,Flood,2001,2001-11-10,921.0,34.83701013,-1.793519366
2001-0664,South Africa,Ubombo,Flood,2001,2001-12-19,5.0,-28.69986901,31.51435648
2001-9044,Burkina Faso,Plateau Central province,Drought,2001,2001-04-01,0.0,12.44969656,-1.142958926
2001-9044,Mali,Bamako,Drought,2001,2001-04-01,0.0,12.61101742,-7.979134549
2001-9044,Chad,Guera,Drought,2001,2001-01-01,0.0,11.4895541,18.63208214
2001-9048,Mozambique,Inhambane province,Drought,2001,2001-01-01,0.0,-22.80887901,34.51464613
2001-9122,Mozambique,Maputo,Drought,2002,2002-03-01,9.0,-25.52759199,32.45011452
2001-9122,Zimbabwe,Kwekwe,Drought,2001,2001-03-01,0.0,-18.87372132,29.56083484
2001-9152,Angola,Cuanza Sul province,Drought,2001,2001-01-01,58.0,-10.82598035,15.04484941
2001-9409,Mauritania,Assaba,Drought,2001,2001-04-01,0.0,16.58027373,-11.53599762
2002-0004,Madagascar,Morombe,Storm,2002,2002-01-02,2.0,-22.01707275,43.70346502
2002-0026,Senegal,Podor,Flood,2002,2002-01-09,28.0,16.1495127,-14.57056932
2002-0026,Senegal,Matam,Flood,2002,2002-01-09,28.0,15.14321577,-13.72726761
2002-0056,Mauritania,Mederdra,Flood,2002,2002-01-09,25.0,17.21987784,-15.68919015
2002-0056,Mauritania,Aleg,Flood,2002,2002-01-09,25.0,16.97849306,-13.65173331
2002-0056,Mauritania,Bababe,Flood,2002,2002-01-09,25.0,16.44769069,-13.94993487
2002-0056,Mauritania,Monguel,Flood,2002,2002-01-09,25.0,16.45465579,-12.9702273
2002-0083,Malawi,Blantyre,Flood,2002,2002-01-01,1.0,-15.66959579,34.94532629
2002-0083,Malawi,Machinga,Flood,2002,2002-01-01,1.0,-14.94298057,35.5674799
2002-0083,Malawi,Mangochi,Flood,2002,2002-01-01,1.0,-14.26112619,35.13529514
2002-0083,Malawi,Nsanje,Flood,2002,2002-01-01,1.0,-16.74704649,35.14269735
2002-0083,Malawi,Dedza,Flood,2002,2002-01-01,1.0,-14.16042252,34.36333532
2002-0083,Malawi,Kasungu,Flood,2002,2002-01-01,1.0,-12.98382635,33.38495223
2002-0083,Malawi,Nkhotakota,Flood,2002,2002-01-01,1.0,-12.80828357,34.20794293
2002-0225,Ethiopia,Afar,Flood,2002,2002-04-16,22.0,12.03494154,40.76807839
2002-0225,Ethiopia,Somali region,Flood,2002,2002-04-16,22.0,6.919663902,43.33516162
2002-0265,Kenya,Migori,Flood,2002,2002-04-26,53.0,-0.989661846,34.36557024
2002-0265,Kenya,Nyando,Flood,2002,2002-04-26,53.0,-1.289752346,36.86696246
2002-0265,Kenya,Kirinyaga,Flood,2002,2002-04-26,53.0,-0.520509739,37.31984304
2002-0265,Kenya,Muranga,Flood,2002,2002-04-26,53.0,-0.802070398,37.03373834
2002-0272,Uganda,Mbale,Flood,2002,2002-04-26,17.0,0.968196686,34.29525827
2002-0272,Uganda,Sironko,Flood,2002,2002-04-26,17.0,1.296870675,34.34448823
2002-0272,Uganda,Bundibugyo,Flood,2002,2002-04-26,17.0,0.873278674,30.22486711
2002-0272,Uganda,Kapchorwa,Flood,2002,2002-04-26,17.0,1.369066886,34.57753472
2002-0281,Madagascar,Ambilobe,Storm,2002,2002-05-09,20.0,-13.48144882,49.07720652
2002-0468,Mali,Goundam,Flood,2002,2002-07-26,2.0,18.60275656,-4.989349916
2002-0468,Mali,Gao,Flood,2002,2002-07-26,2.0,16.79356743,1.347846672
2002-0515,Sudan,White Nile,Flood,2002,2002-08-03,0.0,13.40506842,32.35100786
2002-0540,Algeria,Oum El Bouaghi,Flood,2002,2002-08-17,29.0,35.83530914,7.066078632
2002-0540,Algeria,Khenchela,Flood,2002,2002-08-17,29.0,34.98236823,6.996738835
2002-0540,Algeria,Medea,Flood,2002,2002-08-17,29.0,35.97846063,2.922806182
2002-0590,Seychelles,Anse Aux Pins,Storm,2002,2002-09-05,0.0,-4.688988009,55.51757672
2002-0590,Seychelles,Anse Boileau,Storm,2002,2002-09-05,0.0,-4.708740468,55.49116014
2002-0590,Seychelles,Anse Etoile,Storm,2002,2002-09-05,0.0,-4.593725262,55.45534592
2002-0590,Seychelles,Anse Royale,Storm,2002,2002-09-05,0.0,-4.738370583,55.51287618
2002-0590,Seychelles,Au Cap,Storm,2002,2002-09-05,0.0,-4.708434486,55.51727098
2002-0590,Seychelles,Baie Lazare,Storm,2002,2002-09-05,0.0,-4.753888218,55.48755928
2002-0590,Seychelles,Beau Vallon,Storm,2002,2002-09-05,0.0,-4.610231544,55.43431483
2002-0590,Seychelles,Cascade,Storm,2002,2002-09-05,0.0,-4.669685287,55.48766608
2002-0590,Seychelles,Glacis,Storm,2002,2002-09-05,0.0,-4.576039174,55.44513349
2002-0590,Seychelles,Port Glaud,Storm,2002,2002-09-05,0.0,-4.650608368,55.41445284
2002-0590,Seychelles,Takamaka,Storm,2002,2002-09-05,0.0,-4.78267407,55.51472348
2002-0648,Algeria,Batna,Flood,2002,2002-10-09,13.0,35.41962414,5.874301764
2002-0808,Malawi,Balaka,Flood,2002,2002-12-28,8.0,-15.03607268,35.05558875
2002-0808,Malawi,Machinga,Flood,2002,2002-12-28,8.0,-14.94298057,35.5674799
2002-0808,Malawi,Salima,Flood,2002,2002-12-28,8.0,-13.70485052,34.43057514
2002-0808,Malawi,Ntcheu,Flood,2002,2002-12-28,8.0,-14.81088288,34.71355335
2002-0808,Malawi,Dowa,Flood,2002,2002-12-28,8.0,-13.56861436,33.78735893
2002-9022,Namibia,Otjozondjupa,Drought,2002,2002-07-01,0.0,-20.30837833,18.17331518
2002-9124,Malawi,Balaka,Drought,2002,2002-02-01,500.0,-15.03643071,35.0561911
2002-9333,Lesotho,Qacha's Nek,Drought,2002,2002-04-01,0.0,-29.96559645,28.73808527
2002-9707,Madagascar,Amoron I Mania,Drought,2002,2002-11-01,0.0,-20.49378793,46.68902686
2002-9852,Uganda,Kaabong,Drought,2002,2002-06-01,79.0,3.558186489,34.12007739
2003-0020,Mozambique,Moma,Flood,2003,2003-01-01,4.0,-16.35531865,39.26942077
2003-0020,Mozambique,Angoche,Flood,2003,2003-01-01,4.0,-16.08854415,39.80534615
2003-0020,Mozambique,Mogovolas,Flood,2003,2003-01-01,4.0,-15.73723408,39.25992891
2003-0020,Mozambique,Lalaua,Flood,2003,2003-01-01,4.0,-14.43395248,38.12750388
2003-0020,Mozambique,Murrupula,Flood,2003,2003-01-01,4.0,-15.39958657,38.66423323
2003-0020,Mozambique,Ribaue,Flood,2003,2003-01-01,4.0,-15.00561333,38.19632652
2003-0020,Mozambique,Malema,Flood,2003,2003-01-01,4.0,-14.79811148,37.39282665
2003-0020,Mozambique,Maganja da Costa,Flood,2003,2003-01-01,4.0,-17.10548625,37.62560237
2003-0020,Mozambique,Namacurra,Flood,2003,2003-01-01,4.0,-17.48051344,37.07546732
2003-0020,Mozambique,Mocuba,Flood,2003,2003-01-01,4.0,-16.85294388,36.8632709
2003-0020,Mozambique,Pebane,Flood,2003,2003-01-01,4.0,-16.71857224,38.54005849
2003-0020,Mozambique,Pemba,Flood,2003,2003-01-01,4.0,-12.90441115,40.32280166
2003-0020,Malawi,Balaka,Flood,2003,2003-01-01,8.0,-15.03607268,35.05558875
2003-0020,Malawi,Machinga,Flood,2003,2003-01-01,8.0,-14.94298057,35.5674799
2003-0020,Malawi,Phalombe,Flood,2003,2003-01-01,8.0,-15.66947061,35.68908119
2003-0020,Malawi,Mwanza,Flood,2003,2003-01-01,8.0,-15.66557481,34.51775263
2003-0020,Malawi,Nsanje,Flood,2003,2003-01-01,8.0,-16.74704649,35.14269735
2003-0027,Tunisia,Jendouba,Flood,2003,2003-01-14,8.0,36.64192312,8.705233022
2003-0027,Tunisia,Beja,Flood,2003,2003-01-14,8.0,36.69891275,9.318323808
2003-0027,Tunisia,Manouba,Flood,2003,2003-01-14,8.0,36.82881291,10.04773159
2003-0027,Tunisia,Kairouan,Flood,2003,2003-01-14,8.0,35.62270806,9.860151992
2003-0027,Tunisia,Monastir,Flood,2003,2003-01-14,8.0,35.61695891,10.75674033
2003-0059,Algeria,Alger,Storm,2003,2003-01-31,13.0,36.707393,3.056515494
2003-0059,Algeria,Bejaia,Storm,2003,2003-01-31,13.0,36.57848435,4.838826693
2003-0059,Algeria,Tizi Ouzou,Storm,2003,2003-01-31,13.0,36.67457384,4.203980628
2003-0059,Algeria,Annaba,Storm,2003,2003-01-31,13.0,36.83847484,7.542842368
2003-0072,Angola,Luanda,Flood,2003,2003-02-06,9.0,-8.979736465,13.31045103
2003-0098,Mozambique,Manica,Flood,2003,2003-02-04,32.0,-19.02183442,33.42940088
2003-0114,Mozambique,Inhambane,Storm,2003,2003-03-03,11.0,-22.80887901,34.51464613
2003-0114,Mozambique,Sofala,Storm,2003,2003-03-03,11.0,-19.06197641,34.67534108
2003-0114,Mozambique,Manica,Storm,2003,2003-03-03,11.0,-19.02183442,33.42940088
2003-0160,Algeria,Tizi Ouzou,Flood,2003,2003-04-02,15.0,36.67457384,4.203980628
2003-0160,Algeria,Annaba,Flood,2003,2003-04-02,15.0,36.83847484,7.542842368
2003-0160,Algeria,Blida,Flood,2003,2003-04-02,15.0,36.49210826,2.920971089
2003-0160,Algeria,Constantine,Flood,2003,2003-04-02,15.0,36.34783418,6.688083228
2003-0204,Kenya,Nyando,Flood,2003,2003-04-01,40.0,-0.206162957,34.86703055
2003-0204,Uganda,Mbale,Flood,2003,2003-04-21,5.0,0.968196686,34.29525827
2003-0218,Madagascar,Vatomandry,Storm,2003,2003-05-08,89.0,-19.36169202,48.77693924
2003-0245,Algeria,Thenia,Earthquake,2003,2003-05-21,2266.0,36.7323074,3.551351678
2003-0245,Algeria,Zemmouri,Earthquake,2003,2003-05-21,2266.0,36.78554568,3.603563449
2003-0245,Algeria,Dellys,Earthquake,2003,2003-05-21,2266.0,36.88210096,3.917202394
2003-0245,Algeria,Khemis El Khechna,Earthquake,2003,2003-05-21,2266.0,36.63911198,3.315665678
2003-0245,Algeria,Bordj Menaiel,Earthquake,2003,2003-05-21,2266.0,36.75082115,3.750874429
2003-0245,Algeria,Reghaia,Earthquake,2003,2003-05-21,2266.0,36.74703458,3.350749684
2003-0245,Algeria,Rouiba,Earthquake,2003,2003-05-21,2266.0,36.73650534,3.280857173
2003-0368,Sudan,Kassala,Flood,2003,2003-07-28,20.0,15.98884127,35.75058371
2003-0368,Sudan,Northern,Flood,2003,2003-07-28,20.0,19.56155667,29.3551228
2003-0368,Sudan,Sennar,Flood,2003,2003-07-28,20.0,12.89651755,34.0528914
2003-0389,Burkina Faso,Bam,Flood,2003,2003-08-10,0.0,13.47055,-1.586858017
2003-0389,Burkina Faso,Nahouri,Flood,2003,2003-08-10,0.0,11.20402616,-1.205719501
2003-0389,Burkina Faso,Loroum,Flood,2003,2003-08-10,0.0,13.93829617,-2.170655592
2003-0389,Mali,Gao,Flood,2003,2003-08-10,0.0,16.79356743,1.347846672
2003-0389,Mali,Segou,Flood,2003,2003-08-10,0.0,13.81201315,-5.697989174
2003-0389,Mauritania,Assaba,Flood,2003,2003-08-07,9.0,16.57819295,-11.53500346
2003-0389,Mauritania,Gorgol,Flood,2003,2003-08-07,9.0,16.00759905,-12.83522026
2003-0389,Mauritania,Brakna,Flood,2003,2003-08-07,9.0,17.2477516,-13.40325788
2003-0389,Niger,Dosso,Flood,2003,2003-08-01,7.0,13.19825836,3.541820152
2003-0389,Senegal,Kanel,Flood,2003,2003-08-08,8.0,14.97394954,-13.14365541
2003-0422,Gambia,Mansajang Kunda,Storm,2003,2003-08-24,3.0,13.31744975,-14.23276593
2003-0455,Nigeria,Kaduna,Flood,2003,2003-09-05,16.0,10.35507132,7.705680097
2003-0455,Nigeria,Kano,Flood,2003,2003-09-05,16.0,11.73558934,8.51260524
2003-0455,Nigeria,Niger,Flood,2003,2003-09-05,16.0,9.93437545,5.599749648
2003-0469,Tunisia,Tunis,Flood,2003,2003-09-16,4.0,36.81553623,10.16357475
2003-0469,Tunisia,Bizerte,Flood,2003,2003-09-16,4.0,37.08849374,9.60339295
2003-0503,Algeria,Saida,Flood,2003,2003-10-15,13.0,34.73677042,0.280599689
2003-0503,Algeria,Mascara,Flood,2003,2003-10-15,13.0,35.39068636,0.159045282
2003-0523,Guinea-Bissau,Bafata,Flood,2003,2003-10-01,0.0,12.16319565,-14.70709412
2003-0570,Angola,Uige province,Flood,2003,2003-11-22,6.0,-7.024000898,15.47774896
2003-0742,Zimbabwe,Muzarabani,Flood,2003,2003-02-25,2.0,-16.33397701,30.56930665
2003-9035,Mozambique,Magoe,Drought,2003,2003-01-01,9.0,-15.90215504,31.36301247
2003-9651,Burundi,Kirundo,Drought,2003,2003-09-01,0.0,-2.544018995,30.15764447
2003-9651,Rwanda,Gatsibo,Drought,2003,2003-03-01,0.0,-1.61907309,30.4453977
2003-9772,Ethiopia,Tigray,Drought,2003,,0.0,13.77672826,38.4415074
2004-0019,Angola,Catata,Flood,2004,2004-01-27,27.0,-17.36904301,19.41441566
2004-0103,Madagascar,Antalaha,Storm,2004,2004-03-07,363.0,-15.22264112,50.14276934
2004-0103,Madagascar,Andapa,Storm,2004,2004-03-07,363.0,-14.56811087,49.55531552
2004-0103,Madagascar,Sambava,Storm,2004,2004-03-07,363.0,-14.21476942,49.78464448
2004-0103,Madagascar,Ambilobe,Storm,2004,2004-03-07,363.0,-13.48144882,49.07720652
2004-0159,Angola,Cuando Cubango,Flood,2004,2004-02-01,0.0,-16.11855256,19.51596434
2004-0159,Botswana,Ngamiland province,Flood,2004,2004-02-01,0.0,-19.60976553,22.77179572
2004-0159,Namibia,Kavango,Flood,2004,2004-02-01,0.0,-18.36868782,19.75014915
2004-0159,Zambia,Senanga,Flood,2004,2004-02-01,2.0,-15.99229693,23.58296996
2004-0159,Zambia,Mongu,Flood,2004,2004-02-01,2.0,-15.23872858,23.50236236
2004-0159,Zambia,Kalabo,Flood,2004,2004-02-01,2.0,-15.10973088,22.42626141
2004-0159,Zambia,Chavuma,Flood,2004,2004-02-01,2.0,-13.2238895,22.44308201
2004-0194,Kenya,Nyando,Flood,2004,2004-04-09,50.0,-0.206162957,34.86703055
2004-0201,Algeria,Laghouat,Flood,2004,2004-04-14,3.0,33.60771983,2.729505761
2004-0201,Algeria,Oran,Flood,2004,2004-04-14,3.0,35.65022649,-0.600139593
2004-0659,Somalia,Marka,Earthquake,2004,2004-12-26,298.0,1.722400881,44.70082352
2004-0659,Seychelles,Anse Aux Pins,Earthquake,2004,2004-12-26,3.0,-4.688988009,55.51757672
2004-0659,Seychelles,Anse Boileau,Earthquake,2004,2004-12-26,3.0,-4.708740468,55.49116014
2004-0659,Seychelles,Anse Etoile,Earthquake,2004,2004-12-26,3.0,-4.593725262,55.45534592
2004-0659,Seychelles,Anse Royale,Earthquake,2004,2004-12-26,3.0,-4.738370583,55.51287618
2004-0659,Seychelles,Au Cap,Earthquake,2004,2004-12-26,3.0,-4.708434486,55.51727098
2004-0659,Seychelles,Baie Lazare,Earthquake,2004,2004-12-26,3.0,-4.753888218,55.48755928
2004-0659,Seychelles,Beau Vallon,Earthquake,2004,2004-12-26,3.0,-4.610231544,55.43431483
2004-0659,Seychelles,Cascade,Earthquake,2004,2004-12-26,3.0,-4.669685287,55.48766608
2004-0659,Seychelles,Glacis,Earthquake,2004,2004-12-26,3.0,-4.576039174,55.44513349
2004-0659,Seychelles,La Digue,Earthquake,2004,2004-12-26,3.0,-4.394505771,55.51602805
2004-0659,Seychelles,Port Glaud,Earthquake,2004,2004-12-26,3.0,-4.650608368,55.41445284
2004-9017,South Africa,KwaZulu-Natal,Drought,2004,2004-01-01,0.0,-28.7280623,30.72670577
2004-9085,Somalia,Sool,Drought,2004,2004-01-01,0.0,8.968533807,47.54038028
2004-9288,Kenya,Kitui,Drought,2004,2004-07-01,80.0,-1.488403389,38.40621153
2004-9480,Angola,Cunene,Drought,2004,2004-09-01,0.0,-16.50351286,15.57852043
2005-0075,Mozambique,Caia,Flood,2005,2005-01-25,0.0,-17.78400452,35.00329921
2005-0095,Algeria,Adrar,Flood,2005,2005-03-06,11.0,26.01350392,-0.620313009
2005-0097,Madagascar,Diana,Flood,2005,2005-03-02,25.0,-13.34348631,48.9252206
2005-0132,South Africa,Klerksdorp,Earthquake,2005,2005-03-09,2.0,-26.26786088,25.51992603
2005-0137,Angola,Zaire,Flood,2005,2005-01-27,0.0,-6.607559656,13.56282959
2005-0137,Angola,Malanje,Flood,2005,2005-01-27,0.0,-9.488928542,16.95840881
2005-0137,Angola,Bengo,Flood,2005,2005-01-27,0.0,-8.977544048,13.88121069
2005-0137,Angola,Huambo,Flood,2005,2005-01-27,0.0,-12.56992312,15.74654049
2005-0137,Angola,Benguela,Flood,2005,2005-01-27,0.0,-12.93351173,13.98970619
2005-0137,Angola,Bie,Flood,2005,2005-01-27,0.0,-12.32493312,17.36258115
2005-0205,Comoros,Dimani,Volcanic activity,2005,2005-04-16,0.0,-11.6625806,43.35420891
2005-0215,Ethiopia,Dire Dawa,Flood,2005,2005-04-23,156.0,9.605567952,42.00240951
2005-0260,Kenya,Rift Valley,Flood,2005,2005-05-18,5.0,0.67527177,35.94712117
2005-0260,Kenya,Rift Valley,Flood,2005,2005-05-18,5.0,-0.719262097,35.29742345
2005-0260,Kenya,Rift Valley,Flood,2005,2005-05-18,5.0,0.787741119,35.54612096
2005-0260,Kenya,Rift Valley,Flood,2005,2005-05-18,5.0,-0.28635268,35.31502648
2005-0260,Kenya,Rift Valley,Flood,2005,2005-05-18,5.0,-0.459330964,36.07893816
2005-0260,Kenya,Rift Valley,Flood,2005,2005-05-18,5.0,3.265351693,35.43301285
2005-0260,Kenya,Rift Valley,Flood,2005,2005-05-18,5.0,0.526040094,35.32342743
2005-0297,Mali,Ansongo,Flood,2005,2005-06-06,0.0,15.66487559,0.665200929
2005-0423,Nigeria,Jigawa,Flood,2005,2005-08-07,60.0,12.21567495,9.550513513
2005-0423,Nigeria,Bauchi,Flood,2005,2005-08-07,60.0,10.77576006,9.987113629
2005-0423,Nigeria,Taraba,Flood,2005,2005-08-07,60.0,8.033249602,10.82964825
2005-0443,Sierra Leone,Bandakoh,Flood,2005,2005-08-14,20.0,7.500393306,-12.27657304
2005-0444,Cameroon,Littoral province,Flood,2005,2005-08-19,2.0,4.25884787,10.11649983
2005-0448,Senegal,Pikine,Flood,2005,2005-08-20,0.0,14.76568463,-17.34300012
2005-0485,Ethiopia,Tigray,Flood,2005,2005-09-01,13.0,13.77592074,38.44207577
2005-0485,Ethiopia,Oromia,Flood,2005,2005-09-01,13.0,7.508223879,38.7652717
2005-0559,Mauritania,Tagant,Flood,2005,2005-09-27,0.0,18.57331862,-10.3936245
2005-0657,Comoros,Ngazidja province,Volcanic activity,2005,2005-11-24,1.0,-11.6625806,43.35420891
2005-0715,Mozambique,Nhamatanda,Flood,2005,2005-12-22,16.0,-19.33315263,34.24020929
2005-0715,Mozambique,Buzi,Flood,2005,2005-12-22,16.0,-20.02535278,34.35992179
2005-0715,Mozambique,Caia,Flood,2005,2005-12-22,16.0,-17.78400452,35.00329921
2005-0715,Mozambique,Cabo Delgado,Flood,2005,2005-12-22,16.0,-12.45862046,39.36667124
2005-0715,Mozambique,Inhambane,Flood,2005,2005-12-22,16.0,-22.80887901,34.51464613
2005-0715,Malawi,Chikwawa,Flood,2005,2005-12-22,1.0,-16.16657424,34.70983653
2005-0715,Malawi,Nsanje,Flood,2005,2005-12-22,1.0,-16.74704649,35.14269735
2005-0715,Malawi,Mangochi,Flood,2005,2005-12-22,1.0,-14.26112619,35.13529514
2005-9067,Burundi,Busoni,Drought,2005,2005-01-01,120.0,-2.473185538,30.25226145
2005-9142,Mali,Mopti,Drought,2005,,0.0,14.70515251,-3.511409454
2005-9163,Uganda,Rupa,Drought,2005,2005-03-01,0.0,2.812515888,34.53324574
2005-9262,Mozambique,Maputo,Drought,2005,2005-05-01,0.0,-25.52759199,32.45011452
2005-9362,Niger,Tillaberi,Drought,2005,2005-07-01,0.0,14.27358151,1.545046778
2005-9719,Kenya,Makueni,Drought,2005,2005-12-01,27.0,-2.155173188,37.78747161
2005-9722,Somalia,Gedo,Drought,2005,,2.0,2.887436022,41.97514555
2005-9747,Ethiopia,Afder,Drought,2005,2005-11-01,0.0,5.397906389,42.48244031
2006-0023,Angola,Huila,Flood,2006,2006-01-01,0.0,-14.74288032,14.95009645
2006-0100,Mozambique,Machaze,Earthquake,2006,2006-02-22,4.0,-21.04207314,33.27193835
2006-0178,Kenya,Isiolo,Flood,2006,2006-04-04,60.0,1.01242812,38.54132722
2006-0204,Ethiopia,Afar,Flood,2006,2006-04-09,0.0,12.03494154,40.76807839
2006-0234,Kenya,Nyanza,Flood,2006,2006-04-25,8.0,-0.536907558,34.36343158
2006-0234,Kenya,Nyanza,Flood,2006,2006-04-25,8.0,-0.162933047,34.83466421
2006-0282,Comoros,Ngazidja province,Volcanic activity,2006,2006-05-28,0.0,-11.6625806,43.35420891
2006-0318,Burundi,Muramvya province,Flood,2006,2006-06-01,11.0,-3.271246646,29.65185683
2006-0391,Mauritania,Trarza,Flood,2006,2006-07-22,7.0,17.92358202,-14.84502023
2006-0422,Ethiopia,Genfele,Flood,2006,2006-08-05,498.0,8.979195644,38.78591906
2006-0422,Somalia,Bardhere,Flood,2006,2006-08-04,5.0,2.084387988,41.70158749
2006-0442,Ethiopia,Amhara,Flood,2006,2006-08-13,2.0,11.56246391,38.04731169
2006-0445,Mali,Sikasso,Flood,2006,2006-08-03,1.0,11.43183956,-6.559005219
2006-0445,Niger,Zinder,Flood,2006,2006-08-03,4.0,14.98556837,10.03037009
2006-0445,Niger,Tahoua,Flood,2006,2006-08-03,4.0,15.77600267,5.227769099
2006-0445,Niger,Dosso,Flood,2006,2006-08-03,4.0,13.19821782,3.541880626
2006-0480,Burundi,Kayogoro,Flood,2006,2006-08-26,0.0,-4.150913472,30.02221315
2006-0507,Burkina Faso,Oudalan,Flood,2006,2006-09-12,0.0,14.65315234,-0.332164616
2006-0578,Ethiopia,Gode,Flood,2006,2006-10-27,80.0,6.107586297,43.53092574
2006-0578,Ethiopia,Kelafo,Flood,2006,2006-10-27,80.0,5.739242392,44.17314558
2006-0578,Ethiopia,Mustahil,Flood,2006,2006-10-27,80.0,5.452177031,44.76028407
2006-0578,Ethiopia,Ferfer,Flood,2006,2006-10-27,80.0,5.49024987,45.23027746
2006-0587,Kenya,Moyale,Flood,2006,2006-10-15,30.0,3.138993816,38.82361968
2006-0587,Kenya,Mandera,Flood,2006,2006-10-15,30.0,3.438423986,40.73672875
2006-0587,Kenya,Garissa,Flood,2006,2006-10-15,30.0,-0.490329839,40.20521323
2006-0624,Kenya,Ijara,Flood,2006,2006-10-23,114.0,-1.51304614,40.83537655
2006-0624,Kenya,Wajir,Flood,2006,2006-10-23,114.0,1.810796847,40.033724
2006-0624,Kenya,Kilifi,Flood,2006,2006-10-23,114.0,-3.173329786,39.68661267
2006-0624,Kenya,Moyale,Flood,2006,2006-10-23,114.0,3.138993816,38.82361968
2006-0624,Uganda,Kumi,Flood,2006,2006-10-23,0.0,1.440651322,33.96815493
2006-0624,Uganda,Kayunga,Flood,2006,2006-10-23,0.0,0.977925008,32.89005431
2006-0624,Uganda,Mukono,Flood,2006,2006-10-23,0.0,0.360405387,32.92541074
2006-0624,Uganda,Kabale,Flood,2006,2006-10-23,0.0,-1.221795861,29.97889327
2006-0624,Uganda,Kisoro,Flood,2006,2006-10-23,0.0,-1.219963977,29.68078176
2006-0624,Uganda,Butaleja,Flood,2006,2006-10-23,0.0,0.911576186,33.98047424
2006-0624,Uganda,Kaliro,Flood,2006,2006-10-23,0.0,-0.28305861,31.18291283
2006-0701,Burundi,Cibitoke,Flood,2006,2006-12-01,0.0,-2.819053775,29.22925396
2006-0711,Chad,Doba,Flood,2006,2006-09-05,52.0,8.647335038,16.93334169
2006-9233,Guinea-Bissau,Quinara,Drought,2006,2006-05-01,0.0,11.66393571,-15.18687127
2006-9425,Mali,Kidal province,Drought,2006,2006-08-01,0.0,19.47395567,1.143573524
2007-0008,Malawi,Chikwawa,Flood,2007,2007-01-08,2.0,-16.16657424,34.70983653
2007-0010,Angola,Cuando Cubango,Flood,2007,2007-01-10,0.0,-16.11855256,19.51596434
2007-0010,Angola,Huambo,Flood,2007,2007-01-10,0.0,-12.56992312,15.74654049
2007-0010,Angola,Malanje,Flood,2007,2007-01-10,0.0,-9.488928542,16.95840881
2007-0010,Zambia,North-Western,Flood,2007,2007-01-10,4.0,-13.03297593,25.05691674
2007-0010,Zambia,Copperbelt,Flood,2007,2007-01-10,4.0,-13.1149717,27.84704522
2007-0010,Zambia,Western,Flood,2007,2007-01-10,4.0,-15.64397925,23.67196792
2007-0020,Mozambique,Gurue,Flood,2007,2007-01-17,29.0,-15.35049859,36.94828272
2007-0020,Mozambique,Quelimane,Flood,2007,2007-01-17,29.0,-17.85806251,36.91355453
2007-0020,Mozambique,Namacurra,Flood,2007,2007-01-17,29.0,-17.48051344,37.07546732
2007-0020,Mozambique,Mocuba,Flood,2007,2007-01-17,29.0,-16.85294388,36.8632709
2007-0020,Mozambique,Maganja da Costa,Flood,2007,2007-01-17,29.0,-17.10548625,37.62560237
2007-0020,Mozambique,Mopeia,Flood,2007,2007-01-17,29.0,-17.83042469,36.05903694
2007-0020,Mozambique,Chinde,Flood,2007,2007-01-17,29.0,-18.37436579,36.33504942
2007-0020,Mozambique,Tambara,Flood,2007,2007-01-17,29.0,-16.96116036,34.10481168
2007-0020,Mozambique,Guro,Flood,2007,2007-01-17,29.0,-16.97238109,33.53685785
2007-0020,Mozambique,Marromeu,Flood,2007,2007-01-17,29.0,-18.43526513,35.75569246
2007-0020,Mozambique,Chemba,Flood,2007,2007-01-17,29.0,-17.2038874,34.62952709
2007-0020,Mozambique,Chibabava,Flood,2007,2007-01-17,29.0,-20.39074454,33.88663631
2007-0020,Mozambique,Mutarara,Flood,2007,2007-01-17,29.0,-16.86997563,34.7767421
2007-0020,Mozambique,Zumbo,Flood,2007,2007-01-17,29.0,-15.22877349,30.93504634
2007-0020,Mozambique,Moatize,Flood,2007,2007-01-17,29.0,-15.9612463,33.98402888
2007-0020,Mozambique,Magoe,Flood,2007,2007-01-17,29.0,-15.90174503,31.36342602
2007-0020,Mozambique,Cahora Bassa,Flood,2007,2007-01-17,29.0,-16.02275181,32.50523374
2007-0020,Mozambique,Moma,Flood,2007,2007-01-17,29.0,-16.35531865,39.26942077
2007-0027,Angola,Huambo,Flood,2007,2007-01-17,105.0,-12.56992312,15.74654049
2007-0027,Angola,Bengo,Flood,2007,2007-01-17,105.0,-8.977544048,13.88121069
2007-0027,Angola,Benguela,Flood,2007,2007-01-17,105.0,-12.93351173,13.98970619
2007-0028,Burundi,Bubanza,Flood,2007,2007-01-01,4.0,-3.124941796,29.39958476
2007-0028,Burundi,Cibitoke,Flood,2007,2007-01-01,4.0,-2.820362065,29.22962419
2007-0028,Burundi,Karuzi,Flood,2007,2007-01-01,4.0,-3.137020391,30.12054744
2007-0032,Madagascar,Mananjary,Storm,2007,2007-01-03,1.0,-21.20064377,48.09200635
2007-0040,Zambia,Chama,Flood,2007,2007-01-20,0.0,-11.21088517,32.81708845
2007-0059,Rwanda,Rubavu,Flood,2007,2007-02-03,10.0,-1.665998006,29.33106868
2007-0080,Zimbabwe,Odzi,Storm,2007,2007-02-27,0.0,-19.2218785,32.43021738
2007-0095,Madagascar,Diana,Storm,2007,2007-03-15,80.0,-13.34348631,48.9252206
2007-0095,Madagascar,Sofia,Storm,2007,2007-03-15,80.0,-15.34285924,48.29327119
2007-0116,Algeria,Relizane,Flood,2007,2007-03-21,15.0,35.8007319,0.799841836
2007-0116,Algeria,Oran,Flood,2007,2007-03-21,15.0,35.65022649,-0.600139593
2007-0177,Kenya,Mombasa,Flood,2007,2007-05-15,2.0,-4.01452028,39.65358019
2007-0177,Kenya,Malindi,Flood,2007,2007-05-15,2.0,-3.211907141,39.91443501
2007-0177,Kenya,Kwale,Flood,2007,2007-05-15,2.0,-4.144062115,39.15480063
2007-0261,Sudan,White Nile,Flood,2007,2007-07-03,150.0,13.40506842,32.35100786
2007-0261,Sudan,Khartoum,Flood,2007,2007-07-03,150.0,15.84371653,32.80459422
2007-0261,Sudan,Blue Nile,Flood,2007,2007-07-03,150.0,11.26783612,34.12527881
2007-0261,Sudan,Southern Kordofan,Flood,2007,2007-07-03,150.0,11.29265135,30.82232038
2007-0261,Sudan,Sennar,Flood,2007,2007-07-03,150.0,12.89651755,34.0528914
2007-0275,Mali,Segou,Flood,2007,2007-07-04,9.0,13.81201315,-5.697989174
2007-0275,Mali,Kayes,Flood,2007,2007-07-04,9.0,13.87280749,-10.23076347
2007-0275,Mali,Sikasso,Flood,2007,2007-07-04,9.0,11.43183956,-6.559005219
2007-0275,Mali,Koulikoro,Flood,2007,2007-07-04,9.0,13.62428613,-7.645623989
2007-0275,Mali,Gao,Flood,2007,2007-07-04,9.0,16.79356743,1.347846672
2007-0304,Ethiopia,Gambela,Flood,2007,2007-07-29,17.0,7.707367955,34.32862318
2007-0304,Ethiopia,Amhara,Flood,2007,2007-07-29,17.0,11.56246815,38.04693811
2007-0304,Ethiopia,SNNPR,Flood,2007,2007-07-29,17.0,6.466660332,36.81073288
2007-0304,Ethiopia,Afar,Flood,2007,2007-07-29,17.0,12.03494154,40.76807839
2007-0304,Ethiopia,Tigray,Flood,2007,2007-07-29,17.0,13.77592074,38.44207577
2007-0305,Burkina Faso,Yatenga,Flood,2007,2007-07-26,52.0,13.60296161,-2.385696986
2007-0305,Burkina Faso,Passore,Flood,2007,2007-07-26,52.0,12.90105042,-2.169687078
2007-0305,Burkina Faso,Bam,Flood,2007,2007-07-26,52.0,13.47055,-1.586858017
2007-0305,Burkina Faso,Namentenga,Flood,2007,2007-07-26,52.0,13.18011607,-0.508368075
2007-0339,Mauritania,Guidimakha,Flood,2007,2007-08-07,2.0,15.37775715,-12.12547638
2007-0389,Niger,Zinder,Flood,2007,2007-07-26,7.0,14.98556837,10.03037009
2007-0389,Niger,Maradi,Flood,2007,2007-07-26,7.0,14.11537985,7.299652875
2007-0389,Niger,Agadez,Flood,2007,2007-07-26,7.0,19.48356243,10.51824021
2007-0389,Niger,Tahoua,Flood,2007,2007-07-26,7.0,15.77600267,5.227769099
2007-0389,Niger,Tillaberi,Flood,2007,2007-07-26,7.0,14.18556471,2.188435162
2007-0408,Uganda,Amuria,Flood,2007,2007-08-15,29.0,2.00905025,33.6356334
2007-0408,Uganda,Bukedea,Flood,2007,2007-08-15,29.0,1.364122669,34.12167357
2007-0408,Uganda,Soroti,Flood,2007,2007-08-15,29.0,1.609776337,33.46576073
2007-0408,Uganda,Amuru,Flood,2007,2007-08-15,29.0,2.864248792,31.7021337
2007-0408,Uganda,Kitgum,Flood,2007,2007-08-15,29.0,3.48928857,32.95513251
2007-0408,Uganda,Pader,Flood,2007,2007-08-15,29.0,2.922897385,33.11311581
2007-0408,Uganda,Amolatar,Flood,2007,2007-08-15,29.0,1.575060999,32.86010317
2007-0408,Uganda,Dokolo,Flood,2007,2007-08-15,29.0,1.942038665,33.07869281
2007-0408,Uganda,Oyam,Flood,2007,2007-08-15,29.0,2.370961029,32.48765909
2007-0408,Uganda,Abim,Flood,2007,2007-08-15,29.0,2.702599439,33.6340221
2007-0408,Uganda,Kaabong,Flood,2007,2007-08-15,29.0,3.558954475,34.11921174
2007-0408,Uganda,Moroto,Flood,2007,2007-08-15,29.0,2.504859138,34.39240945
2007-0408,Uganda,Nakapiripirit,Flood,2007,2007-08-15,29.0,1.865158727,34.64910502
2007-0408,Uganda,Bududa,Flood,2007,2007-08-15,29.0,1.027245901,34.31936419
2007-0408,Uganda,Bukwo,Flood,2007,2007-08-15,29.0,1.249070179,34.66792959
2007-0408,Uganda,Adjumani,Flood,2007,2007-08-15,29.0,3.228940408,31.76921686
2007-0408,Uganda,Arua,Flood,2007,2007-08-15,29.0,3.055479605,31.1020291
2007-0408,Uganda,Moyo,Flood,2007,2007-08-15,29.0,3.530972131,31.67150657
2007-0408,Uganda,Nebbi,Flood,2007,2007-08-15,29.0,2.48031139,31.15841873
2007-0408,Uganda,Yumbe,Flood,2007,2007-08-15,29.0,3.525476834,31.28857773
2007-0408,Uganda,Kiboga,Flood,2007,2007-08-15,29.0,1.014647739,31.76252114
2007-0419,Nigeria,Plateau,Flood,2007,2007-08-04,68.0,9.208963894,9.548720569
2007-0419,Nigeria,Adamawa,Flood,2007,2007-08-04,68.0,9.343554959,12.44482498
2007-0419,Nigeria,Borno,Flood,2007,2007-08-04,68.0,11.8952875,13.1767764
2007-0419,Nigeria,Anambra,Flood,2007,2007-08-04,68.0,6.206837363,6.931034408
2007-0419,Nigeria,Bauchi,Flood,2007,2007-08-04,68.0,10.77576006,9.987113629
2007-0419,Nigeria,Yobe,Flood,2007,2007-08-04,68.0,12.29652727,11.44253345
2007-0419,Nigeria,Ogun,Flood,2007,2007-08-04,68.0,7.001679938,3.467414423
2007-0419,Nigeria,Lagos,Flood,2007,2007-08-04,68.0,6.526077403,3.553893496
2007-0419,Nigeria,Sokoto,Flood,2007,2007-08-04,68.0,13.03584217,5.317541308
2007-0427,Senegal,Thies,Flood,2007,2007-08-09,8.0,14.83108166,-16.7552175
2007-0427,Senegal,Matam,Flood,2007,2007-08-09,8.0,15.14321577,-13.72726761
2007-0427,Senegal,Kaolack,Flood,2007,2007-08-09,8.0,13.97026542,-15.9316131
2007-0427,Senegal,Dakar,Flood,2007,2007-08-09,8.0,14.75388164,-17.26657191
2007-0441,Ghana,Bongo,Flood,2007,2007-08-10,56.0,10.91433559,-0.792827608
2007-0441,Ghana,Garu Tempane,Flood,2007,2007-08-10,56.0,10.83205609,-0.167421384
2007-0441,Ghana,Talensi,Flood,2007,2007-08-10,56.0,10.68061217,-0.703568304
2007-0441,Ghana,Upper West,Flood,2007,2007-08-10,56.0,10.39627769,-2.209558867
2007-0441,Ghana,Northern,Flood,2007,2007-08-10,56.0,9.353679644,-0.966020685
2007-0442,Rwanda,Nyabihu,Flood,2007,2007-09-12,20.0,-1.647527626,29.51057418
2007-0449,Algeria,Tiaret,Flood,2007,2007-09-21,18.0,34.96496777,1.530398332
2007-0449,Algeria,Tissemsilt,Flood,2007,2007-09-21,18.0,35.75786318,1.809620252
2007-0449,Algeria,Chlef,Flood,2007,2007-09-21,18.0,36.23913848,1.255052328
2007-0449,Algeria,Blida,Flood,2007,2007-09-21,18.0,36.49210826,2.920971089
2007-0449,Algeria,Tipaza,Flood,2007,2007-09-21,18.0,36.51993168,2.214876038
2007-0449,Algeria,Alger,Flood,2007,2007-09-21,18.0,36.707393,3.056515494
2007-0449,Algeria,Tizi Ouzou,Flood,2007,2007-09-21,18.0,36.67457384,4.203980628
2007-0449,Algeria,Bouira,Flood,2007,2007-09-21,18.0,36.2529217,3.845134023
2007-0449,Algeria,Bejaia,Flood,2007,2007-09-21,18.0,36.57848435,4.838826693
2007-0449,Algeria,Jijel,Flood,2007,2007-09-21,18.0,36.70100955,5.970304768
2007-0449,Algeria,Khenchela,Flood,2007,2007-09-21,18.0,34.98236823,6.996738835
2007-0501,Tunisia,Tunis,Flood,2007,2007-10-13,16.0,36.81553623,10.16357475
2007-0501,Tunisia,Ariana,Flood,2007,2007-10-13,16.0,36.96915982,10.11546182
2007-0539,Burundi,Cibitoke,Flood,2007,2007-10-15,1.0,-2.820362065,29.22962419
2007-0568,Algeria,Bouzareah,Flood,2007,2007-11-24,14.0,36.78232484,3.021624121
2007-0568,Algeria,Dellys,Flood,2007,2007-11-24,14.0,36.88210096,3.917202394
2007-0585,Malawi,Balaka,Flood,2007,2007-11-18,0.0,-15.03607268,35.05558875
2007-0585,Malawi,Blantyre,Flood,2007,2007-11-18,0.0,-15.66959579,34.94532629
2007-0585,Malawi,Machinga,Flood,2007,2007-11-18,0.0,-14.94298057,35.5674799
2007-0585,Malawi,Chitipa,Flood,2007,2007-11-18,0.0,-9.952477104,33.4867804
2007-0585,Malawi,Karonga,Flood,2007,2007-11-18,0.0,-10.08045636,34.09218317
2007-0585,Malawi,Mzimba,Flood,2007,2007-11-18,0.0,-11.78658669,33.6397272
2007-0595,Nigeria,Ikorodu,Flood,2007,2007-08-01,6.0,6.625776133,3.560167406
2007-0614,Mozambique,Nhamayabue,Flood,2007,2007-12-11,20.0,-17.05759062,35.00437752
2007-0614,Mozambique,Mossurize,Flood,2007,2007-12-11,20.0,-20.51228651,32.9445211
2007-0614,Mozambique,Mopeia,Flood,2007,2007-12-11,20.0,-17.83042469,36.05903694
2007-0614,Mozambique,Chinde,Flood,2007,2007-12-11,20.0,-18.37436579,36.33504942
2007-0614,Mozambique,Morrumbala,Flood,2007,2007-12-11,20.0,-17.05499807,35.78947109
2007-0614,Mozambique,Maganja da Costa,Flood,2007,2007-12-11,20.0,-17.10548625,37.62560237
2007-0614,Mozambique,Namacurra,Flood,2007,2007-12-11,20.0,-17.48051344,37.07546732
2007-0614,Mozambique,Nampula,Flood,2007,2007-12-11,20.0,-14.96481585,39.24779415
2007-0614,Mozambique,Cabo Delgado,Flood,2007,2007-12-11,20.0,-12.45862046,39.36667124
2007-0614,Malawi,Machinga,Flood,2007,2007-11-11,0.0,-14.94298057,35.5674799
2007-0616,Zimbabwe,Chiredzi,Flood,2007,2007-12-19,24.0,-21.34289229,31.68012541
2007-0633,Zambia,Monze,Flood,2007,2007-12-30,10.0,-16.12921347,27.41944
2007-0633,Zambia,Mazabuka,Flood,2007,2007-12-30,10.0,-15.89100316,27.9084661
2007-0633,Zambia,Siavonga,Flood,2007,2007-12-30,10.0,-16.28640904,28.51310616
2007-0633,Zambia,Sinazongwe,Flood,2007,2007-12-30,10.0,-17.37274231,27.29150372
2007-0633,Zambia,Mumbwa,Flood,2007,2007-12-30,10.0,-14.9952785,26.60264041
2007-9343,Mozambique,Gaza,Drought,2007,2007-08-01,0.0,-23.32047206,32.8040835
2007-9494,Lesotho,Maseru,Drought,2007,2007-07-01,0.0,-29.56468597,27.79843853
2007-9499,Malawi,Karonga,Drought,2007,2007-10-01,0.0,-10.07970951,34.09101399
2007-9675,Zimbabwe,Masvingo,Drought,2007,2007-01-01,0.0,-20.78342273,31.24246686
2008-0040,Rwanda,Cyangugu,Earthquake,2008,2008-02-03,36.0,-2.561270536,29.08046151
2008-0043,Madagascar,Melaky,Storm,2008,2008-01-27,12.0,-17.71416931,44.80830408
2008-0043,Madagascar,Boeny,Storm,2008,2008-01-27,12.0,-16.27191218,46.2175861
2008-0060,Angola,Calai,Flood,2008,2008-01-31,7.0,-17.36904301,19.41441566
2008-0060,Angola,Nankova,Flood,2008,2008-01-31,7.0,-16.39029971,18.73297559
2008-0060,Angola,Rivungo,Flood,2008,2008-01-31,7.0,-16.85911827,21.94997308
2008-0060,Angola,Mavinga,Flood,2008,2008-01-31,7.0,-16.12568198,20.29112373
2008-0060,Angola,Namibe,Flood,2008,2008-01-31,7.0,-15.49273632,12.72775373
2008-0060,Angola,Huila,Flood,2008,2008-01-31,7.0,-14.74304821,14.95081339
2008-0060,Namibia,Omusati,Flood,2008,2008-01-30,42.0,-18.27964408,14.89457675
2008-0060,Namibia,Oshana,Flood,2008,2008-01-30,42.0,-18.43009783,15.72291694
2008-0060,Namibia,Oshikoto,Flood,2008,2008-01-30,42.0,-18.59833166,17.00453393
2008-0060,Namibia,Ohangwena,Flood,2008,2008-01-30,42.0,-17.58441259,16.8131225
2008-0070,Madagascar,Betsiboka,Storm,2008,2008-02-17,93.0,-17.2257257,46.99701129
2008-0111,Mozambique,Mossuril,Storm,2008,2008-03-08,9.0,-15.05929932,40.51864542
2008-0111,Mozambique,Moma,Storm,2008,2008-03-08,9.0,-16.35531865,39.26942077
2008-0111,Mozambique,Zambezia,Storm,2008,2008-03-08,9.0,-16.65133304,36.98316268
2008-0291,Togo,Agou,Flood,2008,2008-07-01,6.0,7.542031344,1.001544382
2008-0291,Togo,Kloto,Flood,2008,2008-07-01,6.0,6.976381707,0.759479296
2008-0291,Togo,Vo,Flood,2008,2008-07-01,6.0,6.373258405,1.49586122
2008-0296,Niger,Zinder,Flood,2008,2008-07-01,7.0,14.98697187,10.03136022
2008-0410,Senegal,Diourbel,Flood,2008,2008-08-15,1.0,14.7820716,-16.11981941
2008-0410,Senegal,Kaolack,Flood,2008,2008-08-15,1.0,13.97026542,-15.9316131
2008-0459,Burundi,Mutambu,Flood,2008,2008-09-20,3.0,-3.529311135,29.43399578
2008-0459,Burundi,Kabezi,Flood,2008,2008-09-20,3.0,-3.534040627,29.36829095
2008-0459,Burundi,Muhuta,Flood,2008,2008-09-20,3.0,-3.62489902,29.41517369
2008-0459,Burundi,Nyamurenza,Flood,2008,2008-09-20,3.0,-2.810710706,29.88204687
2008-0485,Rwanda,Rubavu,Flood,2008,2008-10-01,0.0,-1.665998006,29.33106868
2008-0485,Rwanda,Ngoma,Flood,2008,2008-10-01,0.0,-2.183498278,30.45552992
2008-0517,Ethiopia,Mustahil,Flood,2008,2008-11-16,11.0,5.452177031,44.76028407
2008-0517,Ethiopia,Kelafo,Flood,2008,2008-11-16,11.0,5.739242392,44.17314558
2008-0518,Kenya,Mandera,Flood,2008,2008-11-10,17.0,3.438423986,40.73672875
2008-0518,Kenya,Garissa,Flood,2008,2008-11-10,17.0,-0.490329839,40.20521323
2008-0518,Kenya,Migori,Flood,2008,2008-11-10,17.0,-0.989661846,34.36557024
2008-0527,Uganda,Adjumani,Flood,2008,2008-11-17,49.0,3.228940408,31.76921686
2008-0527,Uganda,Moyo,Flood,2008,2008-11-17,49.0,3.530972131,31.67150657
2008-0527,Uganda,Nakapiripirit,Flood,2008,2008-11-17,49.0,1.865158727,34.64910502
2008-0527,Uganda,Moroto,Flood,2008,2008-11-17,49.0,2.504859138,34.39240945
2008-0527,Uganda,Kaabong,Flood,2008,2008-11-17,49.0,3.558954475,34.11921174
2008-0527,Uganda,Abim,Flood,2008,2008-11-17,49.0,2.702599439,33.6340221
2008-0527,Uganda,Kiboga,Flood,2008,2008-11-17,49.0,1.014647739,31.76252114
2008-0527,Uganda,Kayunga,Flood,2008,2008-11-17,49.0,0.977925008,32.89005431
2008-0554,South Sudan,Jonglei,Flood,2008,2008-11-24,0.0,7.378792852,32.32764574
2008-0554,South Sudan,Upper Nil,Flood,2008,2008-11-24,0.0,9.888035633,32.79589909
2008-0628,Mozambique,Mossurize,Flood,2008,2008-12-28,25.0,-20.51228651,32.9445211
2008-0628,Mozambique,Maputo,Flood,2008,2008-12-28,25.0,-25.88858285,32.56003954
2008-0628,Mozambique,Inhambane,Flood,2008,2008-12-28,25.0,-22.80887901,34.51464613
2008-0628,Mozambique,Gaza,Flood,2008,2008-12-28,25.0,-23.32047206,32.8040835
2008-0630,Ghana,West Mamprusi,Flood,2008,2008-07-01,0.0,10.29697012,-1.064879308
2008-0639,Malawi,Balaka,Flood,2008,2008-12-01,0.0,-15.03643071,35.0561911
2008-9200,Ethiopia,Oromia,Drought,2008,2008-05-01,0.0,7.507236611,38.76544158
2008-9302,Kenya,Sacho,Drought,2008,2008-07-01,4.0,0.388403937,35.74599628
2008-9307,Uganda,Nakapiripit,Drought,2008,2008-07-01,0.0,1.865529787,34.6500087
2008-9590,Mozambique,Maputo,Drought,2008,2008-12-01,0.0,-25.52759199,32.45011452
2008-9640,Burundi,Kirundo,Drought,2008,2008-09-01,0.0,-2.544018995,30.15764447
2008-9644,Madagascar,Atsimo Andrefana,Drought,2008,,0.0,-23.05597902,44.43057924
2009-0019,Algeria,Tsabit,Flood,2009,2009-01-20,33.0,28.52243358,-1.256610717
2009-0019,Algeria,Ouargla,Flood,2009,2009-01-20,33.0,31.12645178,6.112294053
2009-0019,Algeria,Tlemcen,Flood,2009,2009-01-20,33.0,34.72738922,-1.403609096
2009-0019,Algeria,Oran,Flood,2009,2009-01-20,33.0,35.65022649,-0.600139593
2009-0019,Algeria,Mostaganem,Flood,2009,2009-01-20,33.0,35.98730491,0.330881926
2009-0019,Algeria,Medea,Flood,2009,2009-01-20,33.0,35.97846063,2.922806182
2009-0019,Algeria,Alger,Flood,2009,2009-01-20,33.0,36.707393,3.056515494
2009-0019,Algeria,Boumerdes,Flood,2009,2009-01-20,33.0,36.72789281,3.636741514
2009-0019,Algeria,Tizi Ouzou,Flood,2009,2009-01-20,33.0,36.67457384,4.203980628
2009-0047,Madagascar,Sava,Storm,2009,2009-01-19,12.0,-14.31236222,49.824274
2009-0047,Madagascar,Atsinanana,Storm,2009,2009-01-19,12.0,-19.10030333,48.68704187
2009-0092,Angola,Mupa,Flood,2009,2009-03-01,60.0,-16.20006451,15.84418871
2009-0092,Angola,Onjiva,Flood,2009,2009-03-01,60.0,-17.09348436,15.66575761
2009-0092,Angola,Evale,Flood,2009,2009-03-01,60.0,-16.53153266,15.77398677
2009-0092,Angola,Moxico,Flood,2009,2009-03-01,60.0,-12.88002552,21.03889891
2009-0092,Angola,Bie,Flood,2009,2009-03-01,60.0,-12.32493312,17.36258115
2009-0092,Angola,Lunda Sul,Flood,2009,2009-03-01,60.0,-10.17646249,20.65598238
2009-0092,Comoros,Anjouan,Flood,2009,2009-04-20,2.0,-12.32394121,43.73359321
2009-0092,Namibia,Kavango,Flood,2009,2009-03-01,92.0,-18.36868782,19.75014915
2009-0092,Namibia,Caprivi,Flood,2009,2009-03-01,92.0,-17.86324222,23.84288669
2009-0103,Zambia,Mongu,Flood,2009,2009-02-27,31.0,-15.23872858,23.50236236
2009-0103,Zambia,Kalabo,Flood,2009,2009-02-27,31.0,-15.10973088,22.42626141
2009-0103,Zambia,Lukulu,Flood,2009,2009-02-27,31.0,-14.23872825,23.3395066
2009-0103,Zambia,North-Western,Flood,2009,2009-02-27,31.0,-13.03297593,25.05691674
2009-0103,Zambia,Northern,Flood,2009,2009-02-27,31.0,-9.720136313,30.66660631
2009-0137,Madagascar,Nosy Varika,Storm,2009,2009-04-06,15.0,-20.56536387,48.17088823
2009-0137,Madagascar,Mananjary,Storm,2009,2009-04-06,15.0,-21.20064377,48.09200635
2009-0137,Madagascar,Vohipeno,Storm,2009,2009-04-06,15.0,-22.34453009,47.72050418
2009-0137,Madagascar,Amparafaravola,Storm,2009,2009-04-06,15.0,-17.45254549,48.3137426
2009-0160,Central African Republic,Mboki,Storm,2009,2009-03-23,0.0,5.538543175,26.51618394
2009-0160,Central African Republic,Zangba,Storm,2009,2009-03-23,0.0,4.893156204,21.36313195
2009-0233,Botswana,Bobirwa,Flood,2009,2009-05-10,0.0,-21.98332533,28.1310216
2009-0233,Botswana,Mahalapye,Flood,2009,2009-05-10,0.0,-23.26028969,26.33314886
2009-0236,Ghana,Sanata Maria,Flood,2009,2009-06-06,16.0,5.821748049,0.065873422
2009-0236,Ghana,Atonsu,Flood,2009,2009-06-06,16.0,6.689428886,-1.596809847
2009-0236,Ghana,Mfantsiman,Flood,2009,2009-06-06,16.0,5.259026625,-1.015210472
2009-0243,Benin,Vossa,Flood,2009,2009-06-22,7.0,8.522382637,2.482025779
2009-0344,Senegal,Dakar,Flood,2009,2009-08-24,6.0,14.75388164,-17.26657191
2009-0344,Senegal,Kaolack,Flood,2009,2009-08-24,6.0,13.97026542,-15.9316131
2009-0344,Senegal,Kaffrine,Flood,2009,2009-08-24,6.0,14.21789849,-15.18627246
2009-0344,Senegal,Thies,Flood,2009,2009-08-24,6.0,14.83108166,-16.7552175
2009-0344,Senegal,Fatick,Flood,2009,2009-08-24,6.0,14.16013181,-16.34494262
2009-0344,Senegal,Matam,Flood,2009,2009-08-24,6.0,15.14321577,-13.72726761
2009-0344,Senegal,Tambacounda,Flood,2009,2009-08-24,6.0,13.89099498,-13.22561827
2009-0344,Senegal,Kedougou,Flood,2009,2009-08-24,6.0,12.84379232,-12.19544526
2009-0375,Nigeria,Zamfara,Flood,2009,2009-09-10,0.0,12.08786821,6.260933842
2009-0375,Nigeria,Kaduna,Flood,2009,2009-09-10,0.0,10.35507132,7.705680097
2009-0375,Nigeria,Niger,Flood,2009,2009-09-10,0.0,9.93437545,5.599749648
2009-0375,Nigeria,Benue,Flood,2009,2009-09-10,0.0,7.324393181,8.758319739
2009-0375,Nigeria,Adamawa,Flood,2009,2009-09-10,0.0,9.343554959,12.44482498
2009-0375,Nigeria,Nassarawa,Flood,2009,2009-09-10,0.0,8.498966396,8.189571934
2009-0375,Nigeria,Sokoto,Flood,2009,2009-09-10,0.0,13.03584217,5.317541308
2009-0375,Nigeria,Jigawa,Flood,2009,2009-09-10,0.0,12.21567495,9.550513513
2009-0379,Sudan,Blue Nile,Flood,2009,2009-08-16,20.0,11.26783612,34.12527881
2009-0379,Sudan,Kassala,Flood,2009,2009-08-16,20.0,15.98884127,35.75058371
2009-0394,Algeria,Biskra,Flood,2009,2009-09-10,15.0,34.46890747,5.335004601
2009-0412,Tunisia,Gabes,Flood,2009,2009-09-22,17.0,33.7990947,10.09102129
2009-0412,Tunisia,Monastir,Flood,2009,2009-09-22,17.0,35.61695891,10.75674033
2009-0412,Tunisia,Mahdia,Flood,2009,2009-09-22,17.0,35.33850338,10.6337978
2009-0412,Tunisia,Sfax,Flood,2009,2009-09-22,17.0,34.77652285,10.38235622
2009-0412,Tunisia,Tozeur,Flood,2009,2009-09-22,17.0,33.93983661,7.989640599
2009-0433,Chad,Toukra,Flood,2009,2009-09-12,3.0,11.75133393,15.2545594
2009-0494,Kenya,Malindi,Flood,2009,2009-10-29,16.0,-3.211907141,39.91443501
2009-0523,Mali,Kayes,Flood,2009,2009-05-01,25.0,13.87291309,-10.23041578
2009-0532,Somalia,Ceel Waaq,Flood,2009,2009-10-23,0.0,2.660944906,41.44936785
2009-0550,Angola,Terra Nova,Flood,2009,2009-12-10,0.0,-8.831550033,13.25888884
2009-0597,Kenya,Laikipia,Flood,2009,2009-12-24,40.0,0.330534087,36.77142682
2009-0597,Kenya,Kajiado,Flood,2009,2009-12-24,40.0,-2.119406153,36.90515523
2009-0597,Kenya,Koibatek,Flood,2009,2009-12-24,40.0,-0.050845287,35.79254889
2009-0597,Kenya,Narok,Flood,2009,2009-12-24,40.0,-1.25082286,35.57394393
2009-0597,Kenya,West Pokot,Flood,2009,2009-12-24,40.0,1.730128266,35.24732925
2009-0597,Kenya,Kericho,Flood,2009,2009-12-24,40.0,-0.28635268,35.31502648
2009-0597,Kenya,Isiolo,Flood,2009,2009-12-24,40.0,1.01242812,38.54132722
2009-9615,Ethiopia,Somali,Drought,2009,2009-01-01,0.0,6.918982846,43.33582439
2009-9633,South Sudan,Unity,Drought,2009,,0.0,8.926421189,29.88578342
2009-9651,Niger,Agadez,Drought,2009,2009-09-01,0.0,19.48541641,10.51799236
2009-9654,Chad,Kanem,Drought,2009,2009-12-01,0.0,15.13281125,15.26495581
2010-0021,Egypt,Ras Sidr,Flood,2010,2010-01-18,12.0,29.5869642,33.30633097
2010-0021,Egypt,Nuweiba,Flood,2010,2010-01-18,12.0,29.30004466,34.32802982
2010-0094,Kenya,Turkana,Flood,2010,2010-03-01,94.0,3.265351693,35.43301285
2010-0094,Kenya,Samburu,Flood,2010,2010-03-01,94.0,1.321851983,37.11836982
2010-0094,Kenya,Nakuru,Flood,2010,2010-03-01,94.0,-0.459330964,36.07893816
2010-0094,Kenya,Malindi,Flood,2010,2010-03-01,94.0,-3.211907141,39.91443501
2010-0097,Mozambique,Buzi,Flood,2010,2010-02-22,5.0,-20.02535278,34.35992179
2010-0097,Mozambique,Chemba,Flood,2010,2010-02-22,5.0,-17.2038874,34.62952709
2010-0097,Mozambique,Nhamatanda,Flood,2010,2010-02-22,5.0,-19.33315263,34.24020929
2010-0097,Mozambique,Caia,Flood,2010,2010-02-22,5.0,-17.78400452,35.00329921
2010-0097,Mozambique,Dondo,Flood,2010,2010-02-22,5.0,-19.54284774,34.84722559
2010-0097,Mozambique,Chinde,Flood,2010,2010-02-22,5.0,-18.37436579,36.33504942
2010-0097,Mozambique,Tambara,Flood,2010,2010-02-22,5.0,-16.96116036,34.10481168
2010-0097,Mozambique,Nampula,Flood,2010,2010-02-22,5.0,-14.96481585,39.24779415
2010-0105,Angola,Evale,Flood,2010,2010-03-01,7.0,-16.53153266,15.77398677
2010-0105,Angola,Moxico province,Flood,2010,2010-03-01,7.0,-12.88002552,21.03889891
2010-0116,Zambia,Sinazongwe,Flood,2010,2010-03-01,0.0,-17.37274231,27.29150372
2010-0116,Zambia,Livingstone,Flood,2010,2010-03-01,0.0,-17.69406408,25.90243622
2010-0116,Zambia,Mpulungu,Flood,2010,2010-03-01,0.0,-8.992771722,30.88237199
2010-0116,Zambia,North-Western,Flood,2010,2010-03-01,0.0,-13.03297593,25.05691674
2010-0122,Burundi,Cibitoke,Flood,2010,2010-02-01,0.0,-2.819053775,29.22925396
2010-0128,Namibia,Kavango,Flood,2010,2010-03-24,8.0,-18.36868782,19.75014915
2010-0128,Namibia,Oshana,Flood,2010,2010-03-24,8.0,-18.43009783,15.72291694
2010-0246,Ghana,Ga West,Flood,2010,2010-06-20,45.0,5.654720378,-0.389706541
2010-0295,Niger,Zinder,Flood,2010,2010-07-19,2.0,14.98556837,10.03037009
2010-0300,Burkina Faso,Soum,Flood,2010,2010-07-21,16.0,14.23652855,-1.287680813
2010-0300,Burkina Faso,Oudalan,Flood,2010,2010-07-21,16.0,14.65315234,-0.332164616
2010-0300,Burkina Faso,Houet,Flood,2010,2010-07-21,16.0,11.29185489,-4.255053785
2010-0300,Burkina Faso,Bougouriba,Flood,2010,2010-07-21,16.0,10.89932857,-3.381736246
2010-0300,Chad,Tibesti,Flood,2010,2010-08-15,24.0,21.14961664,16.64773846
2010-0300,Chad,Sila,Flood,2010,2010-08-15,24.0,12.13877695,21.44171123
2010-0300,Chad,Logone Oriental,Flood,2010,2010-08-15,24.0,8.203300409,16.40898281
2010-0300,Chad,Logone Occidental,Flood,2010,2010-08-15,24.0,8.766772218,15.86817343
2010-0300,Chad,Salamat,Flood,2010,2010-08-15,24.0,10.81028419,20.58377886
2010-0379,Niger,Niamey,Flood,2010,2010-08-01,3.0,13.52929382,2.127571286
2010-0379,Niger,Zinder,Flood,2010,2010-08-01,3.0,14.98556837,10.03037009
2010-0379,Niger,Maradi,Flood,2010,2010-08-01,3.0,14.11537985,7.299652875
2010-0379,Niger,Agadez,Flood,2010,2010-08-01,3.0,19.48356243,10.51824021
2010-0379,Niger,Tahoua,Flood,2010,2010-08-01,3.0,15.77600267,5.227769099
2010-0379,Niger,Diffa,Flood,2010,2010-08-01,3.0,15.86080846,13.21383166
2010-0450,Ethiopia,Afar,Flood,2010,2010-08-22,19.0,12.03494154,40.76807839
2010-0450,Ethiopia,Amhara,Flood,2010,2010-08-22,19.0,11.56246815,38.04693811
2010-0454,Gambia,Kanifing Municipal Council,Flood,2010,2010-07-15,8.0,13.44875625,-16.65883889
2010-0454,Gambia,Lower River,Flood,2010,2010-07-15,8.0,13.38649807,-15.74796878
2010-0454,Gambia,North Bank,Flood,2010,2010-07-15,8.0,13.50750852,-16.01010074
2010-0454,Gambia,Upper River,Flood,2010,2010-07-15,8.0,13.39411373,-14.16231552
2010-0483,Ghana,Brong Ahafo,Flood,2010,2010-09-01,18.0,7.706088399,-1.657978191
2010-0483,Ghana,Eastern,Flood,2010,2010-09-01,18.0,6.412756787,-0.450589257
2010-0509,Nigeria,Jigawa,Flood,2010,2010-09-13,40.0,12.21567495,9.550513513
2010-0509,Nigeria,Sokoto,Flood,2010,2010-09-13,40.0,13.03584217,5.317541308
2010-0509,Nigeria,Kebbi,Flood,2010,2010-09-13,40.0,11.7658034,4.500959545
2010-0509,Nigeria,Niger,Flood,2010,2010-09-13,40.0,9.93437545,5.599749648
2010-0523,Mauritania,Aleg,Flood,2010,2010-09-19,0.0,16.97849306,-13.65173331
2010-0526,Guinea,Norassoba,Flood,2010,2010-09-15,1.0,11.14774172,-9.618469801
2010-0536,Mali,Kayes,Flood,2010,2010-10-04,0.0,13.87280749,-10.23076347
2010-0536,Mali,Koulikoro,Flood,2010,2010-10-04,0.0,13.62428613,-7.645623989
2010-0536,Mali,Sikasso,Flood,2010,2010-10-04,0.0,11.43183956,-6.559005219
2010-0536,Mali,Mopti,Flood,2010,2010-10-04,0.0,14.70486596,-3.512185674
2010-0536,Mali,Tombouctou,Flood,2010,2010-10-04,0.0,21.19267524,-3.303516646
2010-0536,Mali,Gao,Flood,2010,2010-10-04,0.0,16.79356743,1.347846672
2010-0536,Mali,Kidal,Flood,2010,2010-10-04,0.0,19.47361032,1.144092946
2010-0553,Angola,Huambo,Flood,2010,2010-10-15,18.0,-12.56992312,15.74654049
2010-0553,Angola,Zaire,Flood,2010,2010-10-15,18.0,-6.607559656,13.56282959
2010-0553,Angola,Moxico,Flood,2010,2010-10-15,18.0,-12.88002552,21.03889891
2010-0579,Sudan,White Nile,Flood,2010,2010-07-01,3.0,13.40506842,32.35100786
2010-0579,Sudan,Northern Kordofan,Flood,2010,2010-07-01,3.0,14.85151104,29.76737159
2010-0579,South Sudan,Jonglei,Flood,2010,2010-07-01,0.0,7.378792852,32.32764574
2010-0579,South Sudan,Unity,Flood,2010,2010-07-01,0.0,8.926421189,29.88578342
2010-0613,Morocco,Ouarzazate,Flood,2010,2010-11-25,32.0,31.09047168,-6.59160149
2010-0639,Egypt,Tanta,Storm,2010,2010-12-12,31.0,30.82036688,30.9784805
2010-0678,South Africa,Free State,Storm,2010,2010-12-15,40.0,-28.61392393,26.86718034
2010-0678,South Africa,Mpumalanga,Storm,2010,2010-12-15,40.0,-25.87414315,30.29894995
2010-0678,South Africa,North West,Storm,2010,2010-12-15,40.0,-26.26786088,25.51992603
2010-0678,South Africa,Northern Cape,Storm,2010,2010-12-15,40.0,-29.4534085,21.40248344
2010-0678,South Africa,Limpopo,Storm,2010,2010-12-15,40.0,-23.78573005,29.28952133
2010-0678,South Africa,Gauteng,Storm,2010,2010-12-15,40.0,-26.10606905,28.12646848
2010-9082,Burundi,Kayanza,Drought,2011,,0.0,-3.007285299,29.65896884
2010-9082,Ethiopia,Somali,Drought,2011,2011-01-01,0.0,6.918982846,43.33582439
2010-9082,Somalia,Bakool,Drought,2010,2010-02-01,20000.0,4.203733604,43.9474885
2010-9082,Uganda,Kaabong,Drought,2011,2011-03-01,0.0,3.558186489,34.12007739
2010-9181,Zimbabwe,Manicaland,Drought,2010,2010-05-01,0.0,-19.06116231,32.39751357
2010-9249,Mali,Kayes,Drought,2010,2010-06-01,0.0,13.87291309,-10.23041578
2010-9290,Mozambique,Maputo,Drought,2010,2010-03-01,0.0,-25.52759199,32.45011452
2010-9292,Mauritania,Assaba,Drought,2010,,0.0,16.58027373,-11.53599762
2011-0003,Angola,Cazenga,Flood,2011,2011-01-03,17.0,-8.827158398,13.29817335
2011-0003,Angola,Samba,Flood,2011,2011-01-03,17.0,-9.008935568,13.12512277
2011-0003,Angola,Cacuaco,Flood,2011,2011-01-03,17.0,-8.783947786,13.47272257
2011-0043,Lesotho,Qacha's Nek,Flood,2011,2011-02-01,26.0,-29.96574664,28.73857444
2011-0043,Lesotho,Mohale's Hoek,Flood,2011,2011-02-01,26.0,-30.06944537,27.8000134
2011-0043,Lesotho,Mokhotlong,Flood,2011,2011-02-01,26.0,-29.21997355,29.03046457
2011-0057,Madagascar,Vohipeno,Storm,2011,2011-02-14,35.0,-22.34453009,47.72050418
2011-0057,Madagascar,Mampikony,Storm,2011,2011-02-14,35.0,-16.1723969,47.68037653
2011-0057,Madagascar,Miandrivazo,Storm,2011,2011-02-14,35.0,-19.15806195,45.37584922
2011-0057,Madagascar,Sambava,Storm,2011,2011-02-14,35.0,-14.21476942,49.78464448
2011-0057,Madagascar,Morafenobe,Storm,2011,2011-02-14,35.0,-17.92908654,44.96973482
2011-0057,Madagascar,Bekily,Storm,2011,2011-02-14,35.0,-24.25663665,45.40162434
2011-0081,Namibia,Kunene,Flood,2011,2011-03-01,108.0,-19.13446025,13.92780015
2011-0081,Namibia,Oshana,Flood,2011,2011-03-01,108.0,-18.43009783,15.72291694
2011-0081,Namibia,Oshikoto,Flood,2011,2011-03-01,108.0,-18.59833166,17.00453393
2011-0081,Namibia,Omusati,Flood,2011,2011-03-01,108.0,-18.27964408,14.89457675
2011-0081,Namibia,Ohangwena,Flood,2011,2011-03-01,108.0,-17.58441259,16.8131225
2011-0081,Namibia,Kavango,Flood,2011,2011-03-01,108.0,-18.36868782,19.75014915
2011-0092,Angola,Cunene,Flood,2011,2011-03-01,113.0,-16.50351286,15.57852043
2011-0092,Zambia,Chavuma,Flood,2011,2011-03-01,0.0,-13.22367057,22.44419966
2011-0180,Burundi,Ngagara,Flood,2011,2011-03-20,0.0,-3.359259086,29.35840654
2011-0180,Burundi,Cibitoke,Flood,2011,2011-03-20,0.0,-2.820362065,29.22962419
2011-0343,Nigeria,Ibadan North,Flood,2011,2011-08-26,120.0,7.411892432,3.909278704
2011-0343,Nigeria,Oluyole,Flood,2011,2011-08-26,120.0,7.183516837,3.878177187
2011-0343,Nigeria,Ido,Flood,2011,2011-08-26,120.0,7.505281542,3.71163473
2011-0343,Nigeria,Egbeda,Flood,2011,2011-08-26,120.0,7.392201942,4.058841426
2011-0343,Nigeria,Ona Ara,Flood,2011,2011-08-26,120.0,7.252870229,4.041642751
2011-0343,Nigeria,Ibadan North East,Flood,2011,2011-08-26,120.0,7.373931452,3.930477702
2011-0343,Nigeria,Lagelu,Flood,2011,2011-08-26,120.0,7.494530105,4.046716214
2011-0376,Uganda,Bulambuli,Flood,2011,2011-08-20,27.0,1.421010578,34.32627438
2011-0376,Uganda,Kween,Flood,2011,2011-08-20,27.0,1.432909501,34.57276616
2011-0376,Uganda,Mbale,Flood,2011,2011-08-20,27.0,0.968196686,34.29525827
2011-0376,Uganda,Butaleja,Flood,2011,2011-08-20,27.0,0.911576186,33.98047424
2011-0376,Uganda,Masaka,Flood,2011,2011-08-20,27.0,-0.292102802,31.67182954
2011-0376,Uganda,Buhweju,Flood,2011,2011-08-20,27.0,-0.337169688,30.3720596
2011-0376,Uganda,Mitooma,Flood,2011,2011-08-20,27.0,-0.609910037,30.05975068
2011-0376,Uganda,Mpigi,Flood,2011,2011-08-20,27.0,0.162203781,31.91941763
2011-0376,Uganda,Kasese,Flood,2011,2011-08-20,27.0,0.121792156,30.00102736
2011-0376,Uganda,Rukungiri,Flood,2011,2011-08-20,27.0,-0.70157997,29.88687523
2011-0413,Ghana,Greater Accra,Flood,2011,2011-10-26,14.0,5.821748049,0.065873422
2011-0413,Ghana,Eastern,Flood,2011,2011-10-26,14.0,6.411126332,-0.45079031
2011-0504,Kenya,Busia,Flood,2011,2011-11-29,25.0,0.393930648,34.19397582
2011-0504,Kenya,Siaya,Flood,2011,2011-11-29,25.0,-0.054854102,34.2490191
2011-0504,Kenya,Rachuonyo,Flood,2011,2011-11-29,25.0,-0.536907558,34.36343158
2011-0504,Kenya,Samburu,Flood,2011,2011-11-29,25.0,1.321851983,37.11836982
2011-0504,Kenya,Marsabit,Flood,2011,2011-11-29,25.0,2.979020486,37.5691202
2011-0523,Angola,Uige province,Flood,2011,2011-12-15,0.0,-7.024000898,15.47774896
2011-0598,Niger,Ouallam,Flood,2011,2011-08-17,9.0,14.69539889,2.234694449
2011-0598,Niger,Tera,Flood,2011,2011-08-17,9.0,14.19741503,0.853892259
2011-0629,Malawi,Thyolo,Flood,2011,2011-12-01,0.0,-16.10396801,35.14456318
2011-0631,Ethiopia,Mustahil,Flood,2011,2011-11-07,0.0,5.452177031,44.76028407
2011-9524,Burkina Faso,Sahel,Drought,2011,2011-12-01,0.0,14.14637059,-0.440068118
2011-9560,Senegal,Kaffrine,Drought,2011,2011-12-01,0.0,14.21909009,-15.18572045
2011-9629,Lesotho,Quthing,Drought,2011,2011-12-01,0.0,-30.36010491,27.985661
2011-9661,Mali,Kayes,Drought,2011,,0.0,13.87291309,-10.23041578
2011-9663,Ethiopia,Dire Dawa,Drought,2012,,0.0,9.606269024,42.00302663
2011-9663,Kenya,Wajir,Drought,2011,,0.0,1.810589545,40.03406304
2011-9663,Somalia,Bakool,Drought,2012,,0.0,4.203733604,43.9474885
2012-0005,Mozambique,Chinde,Storm,2012,2012-01-20,10.0,-18.37436579,36.33504942
2012-0005,Mozambique,Pebane,Storm,2012,2012-01-20,10.0,-16.71857224,38.54005849
2012-0005,Mozambique,Maganja da Costa,Storm,2012,2012-01-20,10.0,-17.10548625,37.62560237
2012-0005,Mozambique,Gurue,Storm,2012,2012-01-20,10.0,-15.35049859,36.94828272
2012-0005,Mozambique,Mossuril,Storm,2012,2012-01-20,10.0,-15.05929932,40.51864542
2012-0006,Mozambique,Chokwe,Storm,2012,2012-01-18,20.0,-24.56177412,32.95529265
2012-0006,South Africa,Limpopo,Storm,2012,2012-01-01,0.0,-23.78533526,29.28976311
2012-0034,Algeria,Skikda,Flood,2012,2012-02-03,49.0,36.7835197,6.833149234
2012-0034,Algeria,Boumerdes,Flood,2012,2012-02-03,49.0,36.72789281,3.636741514
2012-0043,Madagascar,Brickaville,Storm,2012,2012-02-14,35.0,-18.63590795,48.85424318
2012-0056,Mozambique,Cabo Delgado,Storm,2012,2012-03-03,3.0,-12.45862046,39.36667124
2012-0113,Comoros,Domoni,Flood,2012,2012-04-20,4.0,-12.32394121,43.73359321
2012-0130,Rwanda,Nyabihu,Flood,2012,2012-04-09,5.0,-1.647527626,29.51057418
2012-0166,Kenya,Kitengela,Flood,2012,2012-04-20,73.0,-1.434412399,36.82230923
2012-0166,Kenya,Garsen,Flood,2012,2012-04-20,73.0,-2.336046819,39.50986146
2012-0166,Kenya,Kisumu,Flood,2012,2012-04-20,73.0,-0.162933047,34.83466421
2012-0166,Kenya,Suba,Flood,2012,2012-04-20,73.0,-0.637589225,34.09889389
2012-0166,Kenya,Nyando,Flood,2012,2012-04-20,73.0,-1.289752346,36.86696246
2012-0280,Sudan,Kassala,Flood,2012,2012-08-01,35.0,15.98884127,35.75058371
2012-0280,Sudan,White Nile,Flood,2012,2012-08-01,35.0,13.40506842,32.35100786
2012-0280,Sudan,Gadaref,Flood,2012,2012-08-01,35.0,14.17176499,35.21985351
2012-0302,Niger,Agadez,Flood,2012,2012-07-15,91.0,19.48356243,10.51824021
2012-0302,Niger,Diffa,Flood,2012,2012-07-15,91.0,15.86080846,13.21383166
2012-0302,Niger,Dosso,Flood,2012,2012-07-15,91.0,13.19821782,3.541880626
2012-0302,Niger,Maradi,Flood,2012,2012-07-15,91.0,14.11537985,7.299652875
2012-0302,Niger,Tahoua,Flood,2012,2012-07-15,91.0,15.77600267,5.227769099
2012-0302,Niger,Zinder,Flood,2012,2012-07-15,91.0,14.98556837,10.03037009
2012-0320,Benin,Karimama,Flood,2012,2012-09-01,4.0,11.95574484,2.748865354
2012-0347,Chad,Logone Oriental,Flood,2012,2012-07-15,20.0,8.203300409,16.40898281
2012-0362,Cameroon,Faro,Flood,2012,2012-08-25,15.0,8.246881654,12.87650724
2012-0366,Nigeria,Nassarrawa,Flood,2012,2012-07-01,363.0,8.498966396,8.189571934
2012-0366,Nigeria,Niger,Flood,2012,2012-07-01,363.0,9.93437545,5.599749648
2012-0366,Nigeria,Plateau,Flood,2012,2012-07-01,363.0,9.208963894,9.548720569
2012-0366,Nigeria,Adamawa,Flood,2012,2012-07-01,363.0,9.343554959,12.44482498
2012-0366,Nigeria,Bauchi,Flood,2012,2012-07-01,363.0,10.77576006,9.987113629
2012-0366,Nigeria,Taraba,Flood,2012,2012-07-01,363.0,8.033249602,10.82964825
2012-0366,Nigeria,Yobe,Flood,2012,2012-07-01,363.0,12.29652727,11.44253345
2012-0366,Nigeria,Jigawa,Flood,2012,2012-07-01,363.0,12.21567495,9.550513513
2012-0366,Nigeria,Kaduna,Flood,2012,2012-07-01,363.0,10.35507132,7.705680097
2012-0366,Nigeria,Kano,Flood,2012,2012-07-01,363.0,11.73558934,8.51260524
2012-0366,Nigeria,Katsina,Flood,2012,2012-07-01,363.0,12.37318097,7.629785229
2012-0366,Nigeria,Kebbi,Flood,2012,2012-07-01,363.0,11.7658034,4.500959545
2012-0366,Nigeria,Anambra,Flood,2012,2012-07-01,363.0,6.206837363,6.931034408
2012-0366,Nigeria,Ebonyi,Flood,2012,2012-07-01,363.0,6.266042279,8.002066075
2012-0366,Nigeria,Cross River,Flood,2012,2012-07-01,363.0,5.85599731,8.581700491
2012-0366,Nigeria,Lagos,Flood,2012,2012-07-01,363.0,6.526077403,3.553893496
2012-0380,Uganda,Agago,Flood,2012,2012-08-20,0.0,2.910842081,33.34734345
2012-0380,Uganda,Lamwo,Flood,2012,2012-08-20,0.0,3.547446409,32.72734653
2012-0441,Algeria,Tebessa,Flood,2012,2012-08-31,20.0,35.06193253,7.856513488
2012-0473,South Sudan,Jonglei,Flood,2012,2012-09-07,15.0,7.378792852,32.32764574
2012-0473,South Sudan,Unity,Flood,2012,2012-09-07,15.0,8.926421189,29.88578342
2012-0598,Malawi,Mangochi,Flood,2012,2012-12-15,4.0,-14.26112619,35.13529514
2012-0598,Malawi,Phalombe,Flood,2012,2012-12-15,4.0,-15.66947061,35.68908119
2012-0598,Malawi,Nsanje,Flood,2012,2012-12-15,4.0,-16.74704649,35.14269735
2012-9065,Angola,Bengo,Drought,2012,2012-03-01,0.0,-8.977739795,13.88141273
2012-9160,Chad,Kanem,Drought,2012,2012-06-01,0.0,15.13281125,15.26495581
2012-9304,Malawi,Balaka,Drought,2012,2012-08-01,0.0,-15.03643071,35.0561911
2013-0011,Malawi,Mangochi,Flood,2013,2013-01-01,3.0,-14.26241639,35.13732721
2013-0026,Seychelles,Anse Aux Pins,Storm,2013,2013-02-07,0.0,-4.688988009,55.51757672
2013-0026,Seychelles,Au Cap,Storm,2013,2013-02-07,0.0,-4.708434486,55.51727098
2013-0031,Botswana,Tsokootshaa,Flood,2013,2013-01-16,12.0,-24.61916965,25.93069829
2013-0031,Botswana,Tutume,Flood,2013,2013-01-16,12.0,-20.21743482,25.93892397
2013-0031,Botswana,Masunga,Flood,2013,2013-01-16,12.0,-21.01447465,27.56821981
2013-0031,Botswana,Sowa,Flood,2013,2013-01-16,12.0,-20.56514744,26.22470789
2013-0032,Madagascar,Morombe,Storm,2013,2013-02-22,42.0,-22.01707275,43.70346502
2013-0032,Madagascar,Menabe,Storm,2013,2013-02-22,42.0,-20.23062182,44.89535375
2013-0122,Ghana,Nanumba South,Flood,2013,2013-03-03,5.0,8.774493501,0.121013694
2013-0123,Kenya,Turkana,Flood,2013,2013-03-10,96.0,3.265351693,35.43301285
2013-0123,Kenya,West Pokot,Flood,2013,2013-03-10,96.0,1.730128266,35.24732925
2013-0123,Kenya,Baringo,Flood,2013,2013-03-10,96.0,0.67527177,35.94712117
2013-0123,Kenya,Marakwet,Flood,2013,2013-03-10,96.0,0.787741119,35.54612096
2013-0123,Kenya,Nyeri,Flood,2013,2013-03-10,96.0,-0.334688986,36.95617693
2013-0125,Ethiopia,Korahe,Flood,2013,2013-04-10,0.0,6.645310764,44.42047378
2013-0217,South Africa,Bishop Lavis,Storm,2013,2013-06-01,3.0,-33.89296367,18.59349281
2013-0280,Sudan,Khartoum,Flood,2013,2013-08-01,76.0,15.84371653,32.80459422
2013-0280,Sudan,Blue Nile,Flood,2013,2013-08-01,76.0,11.26783612,34.12527881
2013-0280,Sudan,White Nile,Flood,2013,2013-08-01,76.0,13.40506842,32.35100786
2013-0280,Sudan,Kassala,Flood,2013,2013-08-01,76.0,15.98884127,35.75058371
2013-0281,Kenya,Marigat,Flood,2013,2013-08-05,0.0,0.67527177,35.94712117
2013-0336,Niger,Maradi,Flood,2013,2013-07-15,32.0,14.11537985,7.299652875
2013-0336,Niger,Agadez,Flood,2013,2013-07-15,32.0,19.48356243,10.51824021
2013-0336,Niger,Dosso,Flood,2013,2013-07-15,32.0,13.19821782,3.541880626
2013-0336,Niger,Tahoua,Flood,2013,2013-07-15,32.0,15.77600267,5.227769099
2013-0336,Niger,Niamey,Flood,2013,2013-07-15,32.0,13.52929382,2.127571286
2013-0336,Niger,Zinder,Flood,2013,2013-07-15,32.0,14.98556837,10.03037009
2013-0368,Senegal,Fatick,Flood,2013,2013-09-13,8.0,14.16013181,-16.34494262
2013-0368,Senegal,Kaolack,Flood,2013,2013-09-13,8.0,13.97026542,-15.9316131
2013-0368,Senegal,Thies,Flood,2013,2013-09-13,8.0,14.83108166,-16.7552175
2013-0374,Mauritania,Rosso,Flood,2013,2013-08-05,8.0,16.65071869,-15.73040576
2013-0375,Benin,Karimama,Flood,2013,2013-09-05,0.0,11.95574484,2.748865354
2013-0377,Zambia,Nagoma,Flood,2013,2013-01-01,0.0,-14.99539839,26.60274004
2013-0438,Somalia,Qandala,Storm,2013,2013-11-08,162.0,11.04112429,50.08631979
2013-0534,Niger,Diffa,Flood,2013,2013-11-03,0.0,15.86080846,13.21383166
2013-0546,Libya,Tripoli,Flood,2013,2013-11-30,16.0,32.67436397,13.36828047
2013-9146,Namibia,Kavango,Drought,2013,2013-01-01,0.0,-18.36896362,19.74960216
2013-9478,Zimbabwe,Manicaland,Drought,2013,2013-01-01,0.0,-19.06116231,32.39751357
2014-0063,Burundi,Kinyinya,Flood,2014,2014-02-19,96.0,-3.626073777,30.36264475
2014-0063,Burundi,Kamenge,Flood,2014,2014-02-19,96.0,-3.346875346,29.38991189
2014-0063,Burundi,Kinama,Flood,2014,2014-02-19,96.0,-3.326946264,29.39244396
2014-0063,Burundi,Buterere,Flood,2014,2014-02-19,96.0,-3.332890738,29.33599637
2014-0063,Burundi,Ngagara,Flood,2014,2014-02-19,96.0,-3.359259086,29.35840654
2014-0066,Zimbabwe,Chivi,Flood,2014,2014-01-20,3.0,-20.4938609,30.57852573
2014-0066,Zimbabwe,Tsholotsho,Flood,2014,2014-01-20,3.0,-19.61801311,27.41828561
2014-0092,Comoros,Moheli,Storm,2014,2014-03-27,0.0,-12.2259034,44.44094576
2014-0099,South Africa,Gauteng,Flood,2014,2014-03-01,32.0,-26.10606905,28.12646848
2014-0099,South Africa,Limpopo,Flood,2014,2014-03-01,32.0,-23.78573005,29.28952133
2014-0099,South Africa,Mpumalanga,Flood,2014,2014-03-01,32.0,-25.87414315,30.29894995
2014-0264,Sudan,Khartoum,Flood,2014,2014-07-25,39.0,15.84371653,32.80459422
2014-0264,Sudan,Blue Nile,Flood,2014,2014-07-25,39.0,11.26783612,34.12527881
2014-0264,Sudan,Kassala,Flood,2014,2014-07-25,39.0,15.98884127,35.75058371
2014-0264,Sudan,Northern,Flood,2014,2014-07-25,39.0,19.56155667,29.3551228
2014-0264,Sudan,Sennar,Flood,2014,2014-07-25,39.0,12.89651755,34.0528914
2014-0289,Niger,Niamey,Flood,2014,2014-06-01,36.0,13.53081039,2.127508838
2014-0298,Algeria,Alger,Earthquake,2014,2014-08-01,6.0,36.707393,3.056515494
2014-0438,Lesotho,Leribe,Storm,2014,2014-10-11,0.0,-29.01732624,28.26411909
2014-0514,Zimbabwe,Manicaland,Flood,2014,2014-12-01,11.0,-19.06116231,32.39751357
2014-9196,Burkina Faso,Sahel province,Drought,2014,2014-05-01,0.0,14.14637059,-0.440068118
2014-9404,Kenya,Mandera,Drought,2014,2014-01-01,0.0,3.439001659,40.73546083
2014-9533,Madagascar,Androy,Drought,2014,2014-11-01,0.0,-24.82166781,45.43908551
2015-0011,Mozambique,Nampula,Flood,2015,2015-01-01,160.0,-14.96481585,39.24779415
2015-0011,Malawi,Nsanje,Flood,2015,2015-01-01,278.0,-16.74704649,35.14269735
2015-0011,Malawi,Chikwawa,Flood,2015,2015-01-01,278.0,-16.16657424,34.70983653
2015-0011,Malawi,Phalombe,Flood,2015,2015-01-01,278.0,-15.66947061,35.68908119
2015-0011,Malawi,Blantyre,Flood,2015,2015-01-01,278.0,-15.66959579,34.94532629
2015-0011,Malawi,Zomba,Flood,2015,2015-01-01,278.0,-15.39869489,35.4273079
2015-0011,Malawi,Thyolo,Flood,2015,2015-01-01,278.0,-16.10489336,35.14386574
2015-0011,Malawi,Mulanje,Flood,2015,2015-01-01,278.0,-15.9369444,35.50792739
2015-0011,Malawi,Chiradzulu,Flood,2015,2015-01-01,278.0,-15.74545653,35.21329337
2015-0011,Malawi,Machinga,Flood,2015,2015-01-01,278.0,-14.94298057,35.5674799
2015-0011,Malawi,Mangochi,Flood,2015,2015-01-01,278.0,-14.26112619,35.13529514
2015-0011,Malawi,Ntcheu,Flood,2015,2015-01-01,278.0,-14.81088288,34.71355335
2015-0011,Malawi,Salima,Flood,2015,2015-01-01,278.0,-13.70485052,34.43057514
2015-0011,Malawi,Karonga,Flood,2015,2015-01-01,278.0,-10.08045636,34.09218317
2015-0016,Madagascar,Andramasina,Storm,2015,2015-01-16,89.0,-19.29995223,47.74641137
2015-0016,Madagascar,Ankazobe,Storm,2015,2015-01-16,89.0,-18.16154882,47.05589812
2015-0016,Madagascar,Antananarivo Avaradrano,Storm,2015,2015-01-16,89.0,-19.01998955,47.51686911
2015-0016,Madagascar,Ambalavao,Storm,2015,2015-01-16,89.0,-21.87710163,46.7186064
2015-0016,Madagascar,Ambohimahasoa,Storm,2015,2015-01-16,89.0,-21.06745894,47.16843533
2015-0016,Madagascar,Mahabo,Storm,2015,2015-01-16,89.0,-20.63986947,45.15945057
2015-0016,Madagascar,Miandrivazo,Storm,2015,2015-01-16,89.0,-19.15806195,45.37584922
2015-0016,Madagascar,Vangaindrano,Storm,2015,2015-01-16,89.0,-23.55325037,47.39637476
2015-0016,Madagascar,Ikongo,Storm,2015,2015-01-16,89.0,-21.92944448,47.45054192
2015-0016,Madagascar,Mananjary,Storm,2015,2015-01-16,89.0,-21.20064377,48.09200635
2015-0074,Madagascar,Androy,Storm,2015,2015-02-07,6.0,-24.82166781,45.43908551
2015-0075,Angola,Bengo,Flood,2015,2015-02-13,5.0,-8.977739795,13.88141273
2015-0090,Angola,Luanda province,Flood,2015,2015-03-09,1.0,-8.979736465,13.31045103
2015-0153,Rwanda,Nyamasheke,Flood,2015,2015-04-03,2.0,-2.353312146,29.15517674
2015-0159,Kenya,Kisumu,Flood,2015,2015-04-27,13.0,-0.162933047,34.83466421
2015-0346,Burkina Faso,Ouagadougou,Flood,2015,2015-08-04,8.0,12.37367996,-1.536979778
2015-0368,Niger,Agadez,Flood,2015,2015-07-25,27.0,19.48541641,10.51799236
2015-0392,Sudan,Gadaref,Flood,2015,2015-08-08,20.0,14.17111221,35.22083441
2015-0448,Nigeria,Kano,Flood,2015,2015-09-05,53.0,11.73613018,8.513338298
2015-0477,Somalia,Galgaduud,Flood,2015,2015-10-27,0.0,5.124412009,46.78310013
2015-0480,Guinea,Coyah,Flood,2015,2015-07-24,9.0,9.742510368,-13.33728248
2015-0482,Algeria,Tindouf province,Flood,2015,2015-10-16,0.0,27.69669145,-6.062753361
2015-0544,Somalia,Bay,Flood,2015,2015-03-01,0.0,2.653014199,43.56644195
2015-0564,Kenya,Mt Elgon,Flood,2015,2015-12-01,112.0,0.931827294,34.59756026
2015-0605,Egypt,Alexandria province,Storm,2015,2015-10-24,6.0,30.8446065,29.74511632
2015-0606,Egypt,Behera,Storm,2015,2015-11-03,25.0,30.6294479,30.27628097
2015-9373,Sudan,Southern Kordofan,Drought,2015,2015-08-01,0.0,14.85324317,29.76498703
2015-9500,South Africa,KwaZulu-Natal,Drought,2015,2015-01-01,0.0,-28.7280623,30.72670577
2015-9505,Namibia,Erongo,Drought,2015,2015-01-01,0.0,-22.05386807,15.22795103
2015-9545,Ethiopia,Somali,Drought,2015,2015-09-01,0.0,6.918982846,43.33582439
2015-9616,Somalia,Sanaag,Drought,2015,2015-08-01,0.0,10.30455372,47.68233572
2016-0089,Kenya,Lodwar city,Flood,2016,2016-03-10,3.0,3.209010335,35.67957513
2016-0129,Somalia,Awdal,Flood,2016,2016-04-06,9.0,10.56443643,43.37818303
2016-0130,Uganda,Kyebando,Flood,2016,2016-04-13,0.0,0.911302187,31.10663467
2016-0131,Angola,Viana,Flood,2016,2016-04-16,23.0,-9.067350909,13.29226455
2016-0149,Rwanda,Gakenke,Flood,2016,2016-01-01,67.0,-1.698530562,29.78423662
2016-0247,Angola,Cuanza Sul,Flood,2016,2016-03-01,30.0,-10.82598035,15.04484941
2016-0248,Mozambique,Cabo Delgado province,Flood,2016,2016-01-05,16.0,-12.45862046,39.36667124
2016-0269,Niger,Tahoua,Flood,2016,2016-06-01,11.0,15.77673902,5.227257351
2016-0272,Mali,Gao,Flood,2016,2016-07-11,13.0,16.79331743,1.348131287
2016-0274,Sudan,Al Gezira,Flood,2016,2016-06-01,171.0,14.58234302,33.34535948
2016-0336,Nigeria,Akwa Ibom,Storm,2016,2016-08-14,28.0,4.912295098,7.838176699
2016-0337,Nigeria,Gwaram,Flood,2016,2016-09-01,18.0,11.17834227,9.991843635
2016-0359,Egypt,South Sinai,Storm,2016,2016-10-27,26.0,29.02165264,33.79978092
2016-0449,Senegal,Mbane,Flood,2016,2016-07-01,5.0,16.25289239,-15.55821449
2016-0478,South Africa,Gauteng,Flood,2016,2016-11-09,6.0,-26.10614694,28.12577898
2016-0523,Zimbabwe,Mangwe,Storm,2016,2016-12-09,31.0,-20.97603803,28.00825613
2016-0546,Mozambique,Maputo,Storm,2016,2016-10-24,12.0,-25.52759199,32.45011452
2016-9020,Madagascar,Ambovombe-Androy,Drought,2016,2016-01-01,0.0,-24.8628715,45.77960465
2016-9122,Mozambique,Magude,Drought,2016,2016-01-01,0.0,-24.70120887,32.43924289
2016-9452,Kenya,Kilifi,Drought,2016,2016-06-01,0.0,-3.17440402,39.68688818
2017-0051,Mozambique,Vilankulo,Storm,2017,2017-02-15,7.0,-22.14761761,35.30617928
2017-0079,Botswana,Kavimba,Flood,2017,2017-02-18,0.0,-18.51269688,24.80380033
2017-0083,Ghana,Brong Ahafo province,Storm,2017,2017-03-19,20.0,7.706088399,-1.657978191
2017-0094,Central African Republic,Kabo,Storm,2017,2017-01-01,0.0,8.035948412,18.8515145
2017-0106,Namibia,Oshana,Flood,2017,2017-01-01,0.0,-18.43234844,15.72277517
2017-0109,Angola,Luanda province,Flood,2017,2017-03-21,11.0,-8.979736465,13.31045103
2017-0272,Nigeria,Ekiti,Flood,2017,2017-07-08,20.0,7.702917745,5.313143042
2017-0367,Cameroon,Santchou,Flood,2017,2017-08-04,3.0,5.295685726,9.973916125
2017-0370,Niger,Agadez,Flood,2017,2017-08-26,56.0,19.48541641,10.51799236
2017-0384,Central African Republic,Kouango city,Flood,2017,2017-08-23,0.0,5.089900971,20.43754942
2017-0395,Uganda,Rubanda district,Flood,2017,2017-09-20,17.0,-1.178044283,29.86651122
2017-0415,Rwanda,Rusizi,Storm,2017,2017-09-17,3.0,-2.558645819,29.07939699
2017-0573,Sudan,Khartoum,Flood,2017,2017-06-30,25.0,15.84367916,32.80179655
2017-9208,Niger,Bosso,Drought,2017,2017-05-01,0.0,13.72742481,13.21607457
2017-9342,Chad,Chari Baguimi,Drought,2017,2017-03-01,0.0,11.23892046,16.33070894
2017-9343,Mauritania,Brakna,Drought,2017,2017-04-01,0.0,17.24770366,-13.40356412
2018-0008,Madagascar,Nosy Varika,Storm,2018,2018-01-05,73.0,-20.5643392,48.17135796
2018-0029,Mauritius,Rodrigues island,Storm,2018,2018-01-15,0.0,-19.71752962,63.42052677
2018-0048,Mozambique,Nampula,Flood,2018,2018-01-16,11.0,-14.96481585,39.24779415
2018-0064,Malawi,Karonga,Flood,2018,2018-02-01,1.0,-10.07970951,34.09101399
2018-0065,Burundi,Rugombo,Flood,2018,2018-01-14,0.0,-2.82193931,29.09470673
2018-0086,Madagascar,Mandritsara,Storm,2018,2018-03-14,21.0,-16.0323956,48.73982809
2018-0103,Botswana,Gweta,Flood,2018,2018-02-23,0.0,-21.53879673,26.27168272
2018-0104,Angola,Luanda,Flood,2018,2018-02-22,8.0,-8.979736465,13.31045103
2018-0104,Rwanda,Nyundo,Flood,2018,2018-03-03,24.0,-1.724484878,29.33731342
2018-0116,Kenya,Nairobi,Flood,2018,2018-03-14,15.0,-1.290546381,36.86666878
2018-0132,Kenya,Tana river,Flood,2018,2018-03-14,72.0,-1.524777551,39.41762555
2018-0162,Algeria,Tiaret,Flood,2018,2018-04-24,6.0,34.96510885,1.530423933
2018-0232,Niger,Maradi,Flood,2018,2018-06-01,36.0,14.11615306,7.299178277
2018-0292,Sudan,West Kordofan,Flood,2018,2018-07-23,23.0,11.76198174,28.40530921
2018-0365,Nigeria,Kogi,Flood,2018,2018-09-20,199.0,7.716356483,6.696042
2018-0387,Sudan,Kassala,Flood,2018,2018-08-01,23.0,15.98869069,35.75077515
