,disasterno,Country,Location,Disaster type,Year,Date,Total deaths,Latitude,Longitude
0,1999-9388,Djibouti,Ali Sabieh,Drought,2001,6/1/2001,0,11.24525574,42.90894354
1,1999-9388,Sudan,Northern Darfur,Drought,2000,1/1/2000,0,12.34528025,23.438724
2,1999-9388,Somalia,Ceel Barde,Drought,2000,1/1/2000,21,4.663143716,43.99143085
3,2000-0012,Mozambique,Matutuine,Flood,2000,1/26/2000,800,-26.52435974,32.56154951
4,2000-0012,Mozambique,Manhica,Flood,2000,1/26/2000,800,-25.30894953,32.82550277
5,2000-0012,Mozambique,Magude,Flood,2000,1/26/2000,800,-24.70185045,32.43940654
6,2000-0012,Mozambique,Chibuto,Flood,2000,1/26/2000,800,-24.30044317,33.61295063
7,2000-0012,Mozambique,Chokwe,Flood,2000,1/26/2000,800,-24.56177412,32.95529265
8,2000-0012,Mozambique,Inhambane,Flood,2000,1/26/2000,800,-22.80887901,34.51464613
9,2000-0012,Mozambique,Sofala,Flood,2000,1/26/2000,800,-19.06197641,34.67534108
10,2000-0012,Mozambique,Manica,Flood,2000,1/26/2000,800,-19.02183442,33.42940088
11,2000-0048,Botswana,Selibe-Phikwe,Flood,2000,2/1/2000,3,-21.97918814,27.84895927
12,2000-0083,Zimbabwe,Chimanimani,Flood,2000,1/26/2000,70,-19.77967026,32.72024341
13,2000-0107,Madagascar,Mahanoro,Storm,2000,2/17/2000,130,-20.03218541,48.51810197
14,2000-0107,Madagascar,Vatomandry,Storm,2000,2/17/2000,130,-19.36169202,48.77693924
15,2000-0107,Madagascar,Andramasina,Storm,2000,2/17/2000,130,-19.29995223,47.74641137
16,2000-0107,Madagascar,Ambatolampy,Storm,2000,2/17/2000,130,-19.45776525,47.56519102
17,2000-0107,Madagascar,Antalaha,Storm,2000,2/17/2000,130,-15.22264112,50.14276934
18,2000-0107,Madagascar,Sambava,Storm,2000,2/17/2000,130,-14.21476942,49.78464448
19,2000-0107,Madagascar,Andapa,Storm,2000,2/17/2000,130,-14.56811087,49.55531552
20,2000-0107,Madagascar,Morondava,Storm,2000,2/17/2000,130,-20.57918562,44.38249914
21,2000-0178,Madagascar,Antalaha,Storm,2000,4/2/2000,23,-15.22264112,50.14276934
22,2000-0178,Madagascar,Sambava,Storm,2000,4/2/2000,23,-14.21476942,49.78464448
23,2000-0178,Mozambique,Angoche,Storm,2000,4/2/2000,1,-16.08854415,39.80534615
24,2000-0178,Mozambique,Moma,Storm,2000,4/2/2000,1,-16.35531865,39.26942077
25,2000-0259,Somalia,Jowhar,Flood,2000,5/1/2000,0,2.984045536,45.56420233
26,2000-0501,Niger,Dosso,Flood,2000,7/1/2000,2,13.19825836,3.541820152
27,2000-0753,Mozambique,Zambezia,Storm,2000,11/18/2000,9,-16.65133304,36.98316268
28,2000-0841,Morocco,Tangiers,Flood,2000,12/22/2000,6,35.55198867,-5.903672566
29,2000-0841,Morocco,Chefchaouen,Flood,2000,12/22/2000,6,35.03866215,-5.100489265
30,2000-0841,Morocco,Settat,Flood,2000,12/22/2000,6,32.95825328,-7.46207695
31,2000-9309,Madagascar,Ambovombe-Androy,Drought,2000,6/1/2000,0,-24.8628715,45.77960465
32,2001-0019,Mozambique,Namacurra,Flood,2001,1/1/2001,79,-17.48051344,37.07546732
33,2001-0019,Mozambique,Pebane,Flood,2001,1/1/2001,79,-16.71857224,38.54005849
34,2001-0019,Mozambique,Maganja da Costa,Flood,2001,1/1/2001,79,-17.10548625,37.62560237
35,2001-0019,Mozambique,Morrumbala,Flood,2001,1/1/2001,79,-17.05499807,35.78947109
36,2001-0019,Mozambique,Mopeia,Flood,2001,1/1/2001,79,-17.83042469,36.05903694
37,2001-0019,Mozambique,Buzi,Flood,2001,1/1/2001,79,-20.02535278,34.35992179
38,2001-0019,Mozambique,Chibabava,Flood,2001,1/1/2001,79,-20.39074454,33.88663631
39,2001-0019,Mozambique,Marromeu,Flood,2001,1/1/2001,79,-18.43526513,35.75569246
40,2001-0019,Mozambique,Caia,Flood,2001,1/1/2001,79,-17.78400452,35.00329921
41,2001-0019,Mozambique,Zumbo,Flood,2001,1/1/2001,79,-15.22877349,30.93504634
42,2001-0019,Mozambique,Magoe,Flood,2001,1/1/2001,79,-15.90174503,31.36342602
43,2001-0019,Mozambique,Macanga,Flood,2001,1/1/2001,79,-14.80220221,33.53422828
44,2001-0025,Malawi,Chikwawa,Flood,2001,1/1/2001,59,-16.16437396,34.70894576
45,2001-0091,Zambia,Eastern,Flood,2001,2/1/2001,5,-13.60036646,31.88283639
46,2001-0146,Angola,Luacho,Flood,2001,4/2/2001,48,-13.1693539,13.11089543
47,2001-0146,Angola,Bibala,Flood,2001,4/2/2001,48,-14.68521714,13.14031506
48,2001-0146,Angola,Lubango,Flood,2001,4/2/2001,48,-14.73068596,13.83134184
49,2001-0146,Angola,Bengo province,Flood,2001,4/2/2001,48,-8.977544048,13.88121069
50,2001-0314,Ghana,Nsawam,Flood,2001,6/27/2001,12,5.810592442,-0.275714892
51,2001-0417,Sudan,Kassala,Flood,2001,8/6/2001,3,15.98884127,35.75058371
52,2001-0417,Sudan,Sennar,Flood,2001,8/6/2001,3,12.89651755,34.0528914
53,2001-0448,Ethiopia,Dubti,Flood,2001,8/10/2001,5,11.6841897,41.10159881
54,2001-0494,Nigeria,Jigawa,Flood,2001,8/27/2001,200,12.21567495,9.550513513
55,2001-0521,Chad,Logone Oriental,Flood,2001,8/19/2001,100,8.203300409,16.40898281
56,2001-0521,Chad,Salamat,Flood,2001,8/19/2001,100,10.81028419,20.58377886
57,2001-0524,Mali,Sikasso,Flood,2001,8/18/2001,2,11.43183956,-6.559005219
58,2001-0524,Mali,Kidal,Flood,2001,8/18/2001,2,19.47361032,1.144092946
59,2001-0524,Mali,Mopti,Flood,2001,8/18/2001,2,14.70486596,-3.512185674
60,2001-0524,Mali,Koulikoro,Flood,2001,8/18/2001,2,13.62428613,-7.645623989
61,2001-0524,Mali,Bamako,Flood,2001,8/18/2001,2,12.61101118,-7.977638549
62,2001-0620,Algeria,Ain Benian,Flood,2001,11/10/2001,921,36.35101602,2.37817825
63,2001-0620,Algeria,Bouzareah,Flood,2001,11/10/2001,921,36.78232484,3.021624121
64,2001-0620,Algeria,El Marsa,Flood,2001,11/10/2001,921,36.40397212,0.95661681
65,2001-0620,Algeria,Moussadek,Flood,2001,11/10/2001,921,36.34918407,1.028662332
66,2001-0620,Algeria,Tenes,Flood,2001,11/10/2001,921,36.50594893,1.325552719
67,2001-0620,Algeria,Sidi Abderrahmane,Flood,2001,11/10/2001,921,36.4778584,1.13605408
68,2001-0620,Algeria,Dahra,Flood,2001,11/10/2001,921,36.27282686,0.78596433
69,2001-0620,Algeria,Taougrit,Flood,2001,11/10/2001,921,36.28695636,0.927995317
70,2001-0620,Algeria,Tadjena,Flood,2001,11/10/2001,921,36.33581574,1.119139245
71,2001-0620,Algeria,Breira,Flood,2001,11/10/2001,921,36.45005863,1.58857617
72,2001-0620,Algeria,Oued Goussine,Flood,2001,11/10/2001,921,36.49933598,1.461219662
73,2001-0620,Algeria,Zeboudja,Flood,2001,11/10/2001,921,36.38242933,1.468400171
74,2001-0620,Algeria,El Mamounia,Flood,2001,11/10/2001,921,35.45677719,0.144898165
75,2001-0620,Algeria,Ain Fares,Flood,2001,11/10/2001,921,34.73163786,4.497049448
76,2001-0620,Algeria,Oued El Abtal,Flood,2001,11/10/2001,921,35.43524062,0.658436623
77,2001-0620,Algeria,Ain Boudinar,Flood,2001,11/10/2001,921,35.99616469,0.208284974
78,2001-0620,Algeria,Sidi Lakhdar,Flood,2001,11/10/2001,921,36.25783764,2.148501112
79,2001-0620,Algeria,Sidi Chahmi,Flood,2001,11/10/2001,921,35.66348654,-0.523967774
80,2001-0620,Algeria,Gdyel,Flood,2001,11/10/2001,921,35.7936252,-0.442259937
81,2001-0620,Algeria,Ain Turk,Flood,2001,11/10/2001,921,36.41246916,3.824787187
82,2001-0620,Algeria,El Ancer,Flood,2001,11/10/2001,921,36.7905942,6.173477348
83,2001-0620,Algeria,Hamri,Flood,2001,11/10/2001,921,35.11848772,4.070914528
84,2001-0620,Algeria,Sidi Khettab,Flood,2001,11/10/2001,921,35.92561843,0.542161359
85,2001-0620,Algeria,El Hassasna,Flood,2001,11/10/2001,921,34.77929332,0.364570312
86,2001-0620,Algeria,Sidi Ghiles,Flood,2001,11/10/2001,921,36.56044552,2.11496644
87,2001-0620,Algeria,Damous,Flood,2001,11/10/2001,921,36.50957062,1.713901997
88,2001-0620,Algeria,Aghbal,Flood,2001,11/10/2001,921,36.50672792,1.845458487
89,2001-0620,Algeria,Tigzirt,Flood,2001,11/10/2001,921,36.86280204,4.13730847
90,2001-0620,Algeria,Azzefoun,Flood,2001,11/10/2001,921,36.86935657,4.398046471
91,2001-0620,Algeria,Mezrana,Flood,2001,11/10/2001,921,35.97846063,2.922806182
92,2001-0620,Algeria,Sebdou,Flood,2001,11/10/2001,921,34.63722275,-1.277641574
93,2001-0620,Algeria,Sidi Djilali,Flood,2001,11/10/2001,921,34.42666452,-1.456474214
94,2001-0620,Algeria,Maghnia,Flood,2001,11/10/2001,921,34.83701013,-1.793519366
95,2001-0664,South Africa,Ubombo,Flood,2001,12/19/2001,5,-28.69986901,31.51435648
96,2001-9044,Burkina Faso,Plateau Central province,Drought,2001,4/1/2001,0,12.44969656,-1.142958926
97,2001-9044,Mali,Bamako,Drought,2001,4/1/2001,0,12.61101742,-7.979134549
98,2001-9044,Chad,Guera,Drought,2001,1/1/2001,0,11.4895541,18.63208214
99,2001-9048,Mozambique,Inhambane province,Drought,2001,1/1/2001,0,-22.80887901,34.51464613
100,2001-9122,Mozambique,Maputo,Drought,2002,3/1/2002,9,-25.52759199,32.45011452
101,2001-9122,Zimbabwe,Kwekwe,Drought,2001,3/1/2001,0,-18.87372132,29.56083484
102,2001-9152,Angola,Cuanza Sul province,Drought,2001,1/1/2001,58,-10.82598035,15.04484941
103,2001-9409,Mauritania,Assaba,Drought,2001,4/1/2001,0,16.58027373,-11.53599762
104,2002-0004,Madagascar,Morombe,Storm,2002,1/2/2002,2,-22.01707275,43.70346502
105,2002-0026,Senegal,Podor,Flood,2002,1/9/2002,28,16.1495127,-14.57056932
106,2002-0026,Senegal,Matam,Flood,2002,1/9/2002,28,15.14321577,-13.72726761
107,2002-0056,Mauritania,Mederdra,Flood,2002,1/9/2002,25,17.21987784,-15.68919015
108,2002-0056,Mauritania,Aleg,Flood,2002,1/9/2002,25,16.97849306,-13.65173331
109,2002-0056,Mauritania,Bababe,Flood,2002,1/9/2002,25,16.44769069,-13.94993487
110,2002-0056,Mauritania,Monguel,Flood,2002,1/9/2002,25,16.45465579,-12.9702273
111,2002-0083,Malawi,Blantyre,Flood,2002,1/1/2002,1,-15.66959579,34.94532629
112,2002-0083,Malawi,Machinga,Flood,2002,1/1/2002,1,-14.94298057,35.5674799
113,2002-0083,Malawi,Mangochi,Flood,2002,1/1/2002,1,-14.26112619,35.13529514
114,2002-0083,Malawi,Nsanje,Flood,2002,1/1/2002,1,-16.74704649,35.14269735
115,2002-0083,Malawi,Dedza,Flood,2002,1/1/2002,1,-14.16042252,34.36333532
116,2002-0083,Malawi,Kasungu,Flood,2002,1/1/2002,1,-12.98382635,33.38495223
117,2002-0083,Malawi,Nkhotakota,Flood,2002,1/1/2002,1,-12.80828357,34.20794293
118,2002-0225,Ethiopia,Afar,Flood,2002,4/16/2002,22,12.03494154,40.76807839
119,2002-0225,Ethiopia,Somali region,Flood,2002,4/16/2002,22,6.919663902,43.33516162
120,2002-0265,Kenya,Migori,Flood,2002,4/26/2002,53,-0.989661846,34.36557024
121,2002-0265,Kenya,Nyando,Flood,2002,4/26/2002,53,-1.289752346,36.86696246
122,2002-0265,Kenya,Kirinyaga,Flood,2002,4/26/2002,53,-0.520509739,37.31984304
123,2002-0265,Kenya,Muranga,Flood,2002,4/26/2002,53,-0.802070398,37.03373834
124,2002-0272,Uganda,Mbale,Flood,2002,4/26/2002,17,0.968196686,34.29525827
125,2002-0272,Uganda,Sironko,Flood,2002,4/26/2002,17,1.296870675,34.34448823
126,2002-0272,Uganda,Bundibugyo,Flood,2002,4/26/2002,17,0.873278674,30.22486711
127,2002-0272,Uganda,Kapchorwa,Flood,2002,4/26/2002,17,1.369066886,34.57753472
128,2002-0281,Madagascar,Ambilobe,Storm,2002,5/9/2002,20,-13.48144882,49.07720652
129,2002-0468,Mali,Goundam,Flood,2002,7/26/2002,2,18.60275656,-4.989349916
130,2002-0468,Mali,Gao,Flood,2002,7/26/2002,2,16.79356743,1.347846672
131,2002-0515,Sudan,White Nile,Flood,2002,8/3/2002,0,13.40506842,32.35100786
132,2002-0540,Algeria,Oum El Bouaghi,Flood,2002,8/17/2002,29,35.83530914,7.066078632
133,2002-0540,Algeria,Khenchela,Flood,2002,8/17/2002,29,34.98236823,6.996738835
134,2002-0540,Algeria,Medea,Flood,2002,8/17/2002,29,35.97846063,2.922806182
135,2002-0590,Seychelles,Anse Aux Pins,Storm,2002,9/5/2002,0,-4.688988009,55.51757672
136,2002-0590,Seychelles,Anse Boileau,Storm,2002,9/5/2002,0,-4.708740468,55.49116014
137,2002-0590,Seychelles,Anse Etoile,Storm,2002,9/5/2002,0,-4.593725262,55.45534592
138,2002-0590,Seychelles,Anse Royale,Storm,2002,9/5/2002,0,-4.738370583,55.51287618
139,2002-0590,Seychelles,Au Cap,Storm,2002,9/5/2002,0,-4.708434486,55.51727098
140,2002-0590,Seychelles,Baie Lazare,Storm,2002,9/5/2002,0,-4.753888218,55.48755928
141,2002-0590,Seychelles,Beau Vallon,Storm,2002,9/5/2002,0,-4.610231544,55.43431483
142,2002-0590,Seychelles,Cascade,Storm,2002,9/5/2002,0,-4.669685287,55.48766608
143,2002-0590,Seychelles,Glacis,Storm,2002,9/5/2002,0,-4.576039174,55.44513349
144,2002-0590,Seychelles,Port Glaud,Storm,2002,9/5/2002,0,-4.650608368,55.41445284
145,2002-0590,Seychelles,Takamaka,Storm,2002,9/5/2002,0,-4.78267407,55.51472348
146,2002-0648,Algeria,Batna,Flood,2002,10/9/2002,13,35.41962414,5.874301764
147,2002-0808,Malawi,Balaka,Flood,2002,12/28/2002,8,-15.03607268,35.05558875
148,2002-0808,Malawi,Machinga,Flood,2002,12/28/2002,8,-14.94298057,35.5674799
149,2002-0808,Malawi,Salima,Flood,2002,12/28/2002,8,-13.70485052,34.43057514
150,2002-0808,Malawi,Ntcheu,Flood,2002,12/28/2002,8,-14.81088288,34.71355335
151,2002-0808,Malawi,Dowa,Flood,2002,12/28/2002,8,-13.56861436,33.78735893
152,2002-9022,Namibia,Otjozondjupa,Drought,2002,7/1/2002,0,-20.30837833,18.17331518
153,2002-9124,Malawi,Balaka,Drought,2002,2/1/2002,500,-15.03643071,35.0561911
154,2002-9333,Lesotho,Qacha's Nek,Drought,2002,4/1/2002,0,-29.96559645,28.73808527
155,2002-9707,Madagascar,Amoron I Mania,Drought,2002,11/1/2002,0,-20.49378793,46.68902686
156,2002-9852,Uganda,Kaabong,Drought,2002,6/1/2002,79,3.558186489,34.12007739
157,2003-0020,Mozambique,Moma,Flood,2003,1/1/2003,4,-16.35531865,39.26942077
158,2003-0020,Mozambique,Angoche,Flood,2003,1/1/2003,4,-16.08854415,39.80534615
159,2003-0020,Mozambique,Mogovolas,Flood,2003,1/1/2003,4,-15.73723408,39.25992891
160,2003-0020,Mozambique,Lalaua,Flood,2003,1/1/2003,4,-14.43395248,38.12750388
161,2003-0020,Mozambique,Murrupula,Flood,2003,1/1/2003,4,-15.39958657,38.66423323
162,2003-0020,Mozambique,Ribaue,Flood,2003,1/1/2003,4,-15.00561333,38.19632652
163,2003-0020,Mozambique,Malema,Flood,2003,1/1/2003,4,-14.79811148,37.39282665
164,2003-0020,Mozambique,Maganja da Costa,Flood,2003,1/1/2003,4,-17.10548625,37.62560237
165,2003-0020,Mozambique,Namacurra,Flood,2003,1/1/2003,4,-17.48051344,37.07546732
166,2003-0020,Mozambique,Mocuba,Flood,2003,1/1/2003,4,-16.85294388,36.8632709
167,2003-0020,Mozambique,Pebane,Flood,2003,1/1/2003,4,-16.71857224,38.54005849
168,2003-0020,Mozambique,Pemba,Flood,2003,1/1/2003,4,-12.90441115,40.32280166
169,2003-0020,Malawi,Balaka,Flood,2003,1/1/2003,8,-15.03607268,35.05558875
170,2003-0020,Malawi,Machinga,Flood,2003,1/1/2003,8,-14.94298057,35.5674799
171,2003-0020,Malawi,Phalombe,Flood,2003,1/1/2003,8,-15.66947061,35.68908119
172,2003-0020,Malawi,Mwanza,Flood,2003,1/1/2003,8,-15.66557481,34.51775263
173,2003-0020,Malawi,Nsanje,Flood,2003,1/1/2003,8,-16.74704649,35.14269735
174,2003-0027,Tunisia,Jendouba,Flood,2003,1/14/2003,8,36.64192312,8.705233022
175,2003-0027,Tunisia,Beja,Flood,2003,1/14/2003,8,36.69891275,9.318323808
176,2003-0027,Tunisia,Manouba,Flood,2003,1/14/2003,8,36.82881291,10.04773159
177,2003-0027,Tunisia,Kairouan,Flood,2003,1/14/2003,8,35.62270806,9.860151992
178,2003-0027,Tunisia,Monastir,Flood,2003,1/14/2003,8,35.61695891,10.75674033
179,2003-0059,Algeria,Alger,Storm,2003,1/31/2003,13,36.707393,3.056515494
180,2003-0059,Algeria,Bejaia,Storm,2003,1/31/2003,13,36.57848435,4.838826693
181,2003-0059,Algeria,Tizi Ouzou,Storm,2003,1/31/2003,13,36.67457384,4.203980628
182,2003-0059,Algeria,Annaba,Storm,2003,1/31/2003,13,36.83847484,7.542842368
183,2003-0072,Angola,Luanda,Flood,2003,2/6/2003,9,-8.979736465,13.31045103
184,2003-0098,Mozambique,Manica,Flood,2003,2/4/2003,32,-19.02183442,33.42940088
185,2003-0114,Mozambique,Inhambane,Storm,2003,3/3/2003,11,-22.80887901,34.51464613
186,2003-0114,Mozambique,Sofala,Storm,2003,3/3/2003,11,-19.06197641,34.67534108
187,2003-0114,Mozambique,Manica,Storm,2003,3/3/2003,11,-19.02183442,33.42940088
188,2003-0160,Algeria,Tizi Ouzou,Flood,2003,4/2/2003,15,36.67457384,4.203980628
189,2003-0160,Algeria,Annaba,Flood,2003,4/2/2003,15,36.83847484,7.542842368
190,2003-0160,Algeria,Blida,Flood,2003,4/2/2003,15,36.49210826,2.920971089
191,2003-0160,Algeria,Constantine,Flood,2003,4/2/2003,15,36.34783418,6.688083228
192,2003-0204,Kenya,Nyando,Flood,2003,4/1/2003,40,-0.206162957,34.86703055
193,2003-0204,Uganda,Mbale,Flood,2003,4/21/2003,5,0.968196686,34.29525827
194,2003-0218,Madagascar,Vatomandry,Storm,2003,5/8/2003,89,-19.36169202,48.77693924
195,2003-0245,Algeria,Thenia,Earthquake,2003,5/21/2003,2266,36.7323074,3.551351678
196,2003-0245,Algeria,Zemmouri,Earthquake,2003,5/21/2003,2266,36.78554568,3.603563449
197,2003-0245,Algeria,Dellys,Earthquake,2003,5/21/2003,2266,36.88210096,3.917202394
198,2003-0245,Algeria,Khemis El Khechna,Earthquake,2003,5/21/2003,2266,36.63911198,3.315665678
199,2003-0245,Algeria,Bordj Menaiel,Earthquake,2003,5/21/2003,2266,36.75082115,3.750874429
200,2003-0245,Algeria,Reghaia,Earthquake,2003,5/21/2003,2266,36.74703458,3.350749684
201,2003-0245,Algeria,Rouiba,Earthquake,2003,5/21/2003,2266,36.73650534,3.280857173
202,2003-0368,Sudan,Kassala,Flood,2003,7/28/2003,20,15.98884127,35.75058371
203,2003-0368,Sudan,Northern,Flood,2003,7/28/2003,20,19.56155667,29.3551228
204,2003-0368,Sudan,Sennar,Flood,2003,7/28/2003,20,12.89651755,34.0528914
205,2003-0389,Burkina Faso,Bam,Flood,2003,8/10/2003,0,13.47055,-1.586858017
206,2003-0389,Burkina Faso,Nahouri,Flood,2003,8/10/2003,0,11.20402616,-1.205719501
207,2003-0389,Burkina Faso,Loroum,Flood,2003,8/10/2003,0,13.93829617,-2.170655592
208,2003-0389,Mali,Gao,Flood,2003,8/10/2003,0,16.79356743,1.347846672
209,2003-0389,Mali,Segou,Flood,2003,8/10/2003,0,13.81201315,-5.697989174
210,2003-0389,Mauritania,Assaba,Flood,2003,8/7/2003,9,16.57819295,-11.53500346
211,2003-0389,Mauritania,Gorgol,Flood,2003,8/7/2003,9,16.00759905,-12.83522026
212,2003-0389,Mauritania,Brakna,Flood,2003,8/7/2003,9,17.2477516,-13.40325788
213,2003-0389,Niger,Dosso,Flood,2003,8/1/2003,7,13.19825836,3.541820152
214,2003-0389,Senegal,Kanel,Flood,2003,8/8/2003,8,14.97394954,-13.14365541
215,2003-0422,Gambia,Mansajang Kunda,Storm,2003,8/24/2003,3,13.31744975,-14.23276593
216,2003-0455,Nigeria,Kaduna,Flood,2003,9/5/2003,16,10.35507132,7.705680097
217,2003-0455,Nigeria,Kano,Flood,2003,9/5/2003,16,11.73558934,8.51260524
218,2003-0455,Nigeria,Niger,Flood,2003,9/5/2003,16,9.93437545,5.599749648
219,2003-0469,Tunisia,Tunis,Flood,2003,9/16/2003,4,36.81553623,10.16357475
220,2003-0469,Tunisia,Bizerte,Flood,2003,9/16/2003,4,37.08849374,9.60339295
221,2003-0503,Algeria,Saida,Flood,2003,10/15/2003,13,34.73677042,0.280599689
222,2003-0503,Algeria,Mascara,Flood,2003,10/15/2003,13,35.39068636,0.159045282
223,2003-0523,Guinea-Bissau,Bafata,Flood,2003,10/1/2003,0,12.16319565,-14.70709412
224,2003-0570,Angola,Uige province,Flood,2003,11/22/2003,6,-7.024000898,15.47774896
225,2003-0742,Zimbabwe,Muzarabani,Flood,2003,2/25/2003,2,-16.33397701,30.56930665
226,2003-9035,Mozambique,Magoe,Drought,2003,1/1/2003,9,-15.90215504,31.36301247
227,2003-9651,Burundi,Kirundo,Drought,2003,9/1/2003,0,-2.544018995,30.15764447
228,2003-9651,Rwanda,Gatsibo,Drought,2003,3/1/2003,0,-1.61907309,30.4453977
229,2003-9772,Ethiopia,Tigray,Drought,2003,2003,0,13.77672826,38.4415074
230,2004-0019,Angola,Catata,Flood,2004,1/27/2004,27,-17.36904301,19.41441566
231,2004-0103,Madagascar,Antalaha,Storm,2004,3/7/2004,363,-15.22264112,50.14276934
232,2004-0103,Madagascar,Andapa,Storm,2004,3/7/2004,363,-14.56811087,49.55531552
233,2004-0103,Madagascar,Sambava,Storm,2004,3/7/2004,363,-14.21476942,49.78464448
234,2004-0103,Madagascar,Ambilobe,Storm,2004,3/7/2004,363,-13.48144882,49.07720652
235,2004-0159,Angola,Cuando Cubango,Flood,2004,2/1/2004,0,-16.11855256,19.51596434
236,2004-0159,Botswana,Ngamiland province,Flood,2004,2/1/2004,0,-19.60976553,22.77179572
237,2004-0159,Namibia,Kavango,Flood,2004,2/1/2004,0,-18.36868782,19.75014915
238,2004-0159,Zambia,Senanga,Flood,2004,2/1/2004,2,-15.99229693,23.58296996
239,2004-0159,Zambia,Mongu,Flood,2004,2/1/2004,2,-15.23872858,23.50236236
240,2004-0159,Zambia,Kalabo,Flood,2004,2/1/2004,2,-15.10973088,22.42626141
241,2004-0159,Zambia,Chavuma,Flood,2004,2/1/2004,2,-13.2238895,22.44308201
242,2004-0194,Kenya,Nyando,Flood,2004,4/9/2004,50,-0.206162957,34.86703055
243,2004-0201,Algeria,Laghouat,Flood,2004,4/14/2004,3,33.60771983,2.729505761
244,2004-0201,Algeria,Oran,Flood,2004,4/14/2004,3,35.65022649,-0.600139593
245,2004-0659,Somalia,Marka,Earthquake,2004,12/26/2004,298,1.722400881,44.70082352
246,2004-0659,Seychelles,Anse Aux Pins,Earthquake,2004,12/26/2004,3,-4.688988009,55.51757672
247,2004-0659,Seychelles,Anse Boileau,Earthquake,2004,12/26/2004,3,-4.708740468,55.49116014
248,2004-0659,Seychelles,Anse Etoile,Earthquake,2004,12/26/2004,3,-4.593725262,55.45534592
249,2004-0659,Seychelles,Anse Royale,Earthquake,2004,12/26/2004,3,-4.738370583,55.51287618
250,2004-0659,Seychelles,Au Cap,Earthquake,2004,12/26/2004,3,-4.708434486,55.51727098
251,2004-0659,Seychelles,Baie Lazare,Earthquake,2004,12/26/2004,3,-4.753888218,55.48755928
252,2004-0659,Seychelles,Beau Vallon,Earthquake,2004,12/26/2004,3,-4.610231544,55.43431483
253,2004-0659,Seychelles,Cascade,Earthquake,2004,12/26/2004,3,-4.669685287,55.48766608
254,2004-0659,Seychelles,Glacis,Earthquake,2004,12/26/2004,3,-4.576039174,55.44513349
255,2004-0659,Seychelles,La Digue,Earthquake,2004,12/26/2004,3,-4.394505771,55.51602805
256,2004-0659,Seychelles,Port Glaud,Earthquake,2004,12/26/2004,3,-4.650608368,55.41445284
257,2004-9017,South Africa,KwaZulu-Natal,Drought,2004,1/1/2004,0,-28.7280623,30.72670577
258,2004-9085,Somalia,Sool,Drought,2004,1/1/2004,0,8.968533807,47.54038028
259,2004-9288,Kenya,Kitui,Drought,2004,7/1/2004,80,-1.488403389,38.40621153
260,2004-9480,Angola,Cunene,Drought,2004,9/1/2004,0,-16.50351286,15.57852043
261,2005-0075,Mozambique,Caia,Flood,2005,1/25/2005,0,-17.78400452,35.00329921
262,2005-0095,Algeria,Adrar,Flood,2005,3/6/2005,11,26.01350392,-0.620313009
263,2005-0097,Madagascar,Diana,Flood,2005,3/2/2005,25,-13.34348631,48.9252206
264,2005-0132,South Africa,Klerksdorp,Earthquake,2005,3/9/2005,2,-26.26786088,25.51992603
265,2005-0137,Angola,Zaire,Flood,2005,1/27/2005,0,-6.607559656,13.56282959
266,2005-0137,Angola,Malanje,Flood,2005,1/27/2005,0,-9.488928542,16.95840881
267,2005-0137,Angola,Bengo,Flood,2005,1/27/2005,0,-8.977544048,13.88121069
268,2005-0137,Angola,Huambo,Flood,2005,1/27/2005,0,-12.56992312,15.74654049
269,2005-0137,Angola,Benguela,Flood,2005,1/27/2005,0,-12.93351173,13.98970619
270,2005-0137,Angola,Bie,Flood,2005,1/27/2005,0,-12.32493312,17.36258115
271,2005-0205,Comoros,Dimani,Volcanic activity,2005,4/16/2005,0,-11.6625806,43.35420891
272,2005-0215,Ethiopia,Dire Dawa,Flood,2005,4/23/2005,156,9.605567952,42.00240951
273,2005-0260,Kenya,Rift Valley,Flood,2005,5/18/2005,5,0.67527177,35.94712117
274,2005-0260,Kenya,Rift Valley,Flood,2005,5/18/2005,5,-0.719262097,35.29742345
275,2005-0260,Kenya,Rift Valley,Flood,2005,5/18/2005,5,0.787741119,35.54612096
276,2005-0260,Kenya,Rift Valley,Flood,2005,5/18/2005,5,-0.28635268,35.31502648
277,2005-0260,Kenya,Rift Valley,Flood,2005,5/18/2005,5,-0.459330964,36.07893816
278,2005-0260,Kenya,Rift Valley,Flood,2005,5/18/2005,5,3.265351693,35.43301285
279,2005-0260,Kenya,Rift Valley,Flood,2005,5/18/2005,5,0.526040094,35.32342743
280,2005-0297,Mali,Ansongo,Flood,2005,6/6/2005,0,15.66487559,0.665200929
281,2005-0423,Nigeria,Jigawa,Flood,2005,8/7/2005,60,12.21567495,9.550513513
282,2005-0423,Nigeria,Bauchi,Flood,2005,8/7/2005,60,10.77576006,9.987113629
283,2005-0423,Nigeria,Taraba,Flood,2005,8/7/2005,60,8.033249602,10.82964825
284,2005-0443,Sierra Leone,Bandakoh,Flood,2005,8/14/2005,20,7.500393306,-12.27657304
285,2005-0444,Cameroon,Littoral province,Flood,2005,8/19/2005,2,4.25884787,10.11649983
286,2005-0448,Senegal,Pikine,Flood,2005,8/20/2005,0,14.76568463,-17.34300012
287,2005-0485,Ethiopia,Tigray,Flood,2005,9/1/2005,13,13.77592074,38.44207577
288,2005-0485,Ethiopia,Oromia,Flood,2005,9/1/2005,13,7.508223879,38.7652717
289,2005-0559,Mauritania,Tagant,Flood,2005,9/27/2005,0,18.57331862,-10.3936245
290,2005-0657,Comoros,Ngazidja province,Volcanic activity,2005,11/24/2005,1,-11.6625806,43.35420891
291,2005-0715,Mozambique,Nhamatanda,Flood,2005,12/22/2005,16,-19.33315263,34.24020929
292,2005-0715,Mozambique,Buzi,Flood,2005,12/22/2005,16,-20.02535278,34.35992179
293,2005-0715,Mozambique,Caia,Flood,2005,12/22/2005,16,-17.78400452,35.00329921
294,2005-0715,Mozambique,Cabo Delgado,Flood,2005,12/22/2005,16,-12.45862046,39.36667124
295,2005-0715,Mozambique,Inhambane,Flood,2005,12/22/2005,16,-22.80887901,34.51464613
296,2005-0715,Malawi,Chikwawa,Flood,2005,12/22/2005,1,-16.16657424,34.70983653
297,2005-0715,Malawi,Nsanje,Flood,2005,12/22/2005,1,-16.74704649,35.14269735
298,2005-0715,Malawi,Mangochi,Flood,2005,12/22/2005,1,-14.26112619,35.13529514
299,2005-9067,Burundi,Busoni,Drought,2005,1/1/2005,120,-2.473185538,30.25226145
300,2005-9142,Mali,Mopti,Drought,2005,2005,0,14.70515251,-3.511409454
301,2005-9163,Uganda,Rupa,Drought,2005,3/1/2005,0,2.812515888,34.53324574
302,2005-9262,Mozambique,Maputo,Drought,2005,5/1/2005,0,-25.52759199,32.45011452
303,2005-9362,Niger,Tillaberi,Drought,2005,7/1/2005,0,14.27358151,1.545046778
304,2005-9719,Kenya,Makueni,Drought,2005,12/1/2005,27,-2.155173188,37.78747161
305,2005-9722,Somalia,Gedo,Drought,2005,2005,2,2.887436022,41.97514555
306,2005-9747,Ethiopia,Afder,Drought,2005,11/1/2005,0,5.397906389,42.48244031
307,2006-0023,Angola,Huila,Flood,2006,1/1/2006,0,-14.74288032,14.95009645
308,2006-0100,Mozambique,Machaze,Earthquake,2006,2/22/2006,4,-21.04207314,33.27193835
309,2006-0178,Kenya,Isiolo,Flood,2006,4/4/2006,60,1.01242812,38.54132722
310,2006-0204,Ethiopia,Afar,Flood,2006,4/9/2006,0,12.03494154,40.76807839
311,2006-0234,Kenya,Nyanza,Flood,2006,4/25/2006,8,-0.536907558,34.36343158
312,2006-0234,Kenya,Nyanza,Flood,2006,4/25/2006,8,-0.162933047,34.83466421
313,2006-0282,Comoros,Ngazidja province,Volcanic activity,2006,5/28/2006,0,-11.6625806,43.35420891
314,2006-0318,Burundi,Muramvya province,Flood,2006,6/1/2006,11,-3.271246646,29.65185683
315,2006-0391,Mauritania,Trarza,Flood,2006,7/22/2006,7,17.92358202,-14.84502023
316,2006-0422,Ethiopia,Genfele,Flood,2006,8/5/2006,498,8.979195644,38.78591906
317,2006-0422,Somalia,Bardhere,Flood,2006,8/4/2006,5,2.084387988,41.70158749
318,2006-0442,Ethiopia,Amhara,Flood,2006,8/13/2006,2,11.56246391,38.04731169
319,2006-0445,Mali,Sikasso,Flood,2006,8/3/2006,1,11.43183956,-6.559005219
320,2006-0445,Niger,Zinder,Flood,2006,8/3/2006,4,14.98556837,10.03037009
321,2006-0445,Niger,Tahoua,Flood,2006,8/3/2006,4,15.77600267,5.227769099
322,2006-0445,Niger,Dosso,Flood,2006,8/3/2006,4,13.19821782,3.541880626
323,2006-0480,Burundi,Kayogoro,Flood,2006,8/26/2006,0,-4.150913472,30.02221315
324,2006-0507,Burkina Faso,Oudalan,Flood,2006,9/12/2006,0,14.65315234,-0.332164616
325,2006-0578,Ethiopia,Gode,Flood,2006,10/27/2006,80,6.107586297,43.53092574
326,2006-0578,Ethiopia,Kelafo,Flood,2006,10/27/2006,80,5.739242392,44.17314558
327,2006-0578,Ethiopia,Mustahil,Flood,2006,10/27/2006,80,5.452177031,44.76028407
328,2006-0578,Ethiopia,Ferfer,Flood,2006,10/27/2006,80,5.49024987,45.23027746
329,2006-0587,Kenya,Moyale,Flood,2006,10/15/2006,30,3.138993816,38.82361968
330,2006-0587,Kenya,Mandera,Flood,2006,10/15/2006,30,3.438423986,40.73672875
331,2006-0587,Kenya,Garissa,Flood,2006,10/15/2006,30,-0.490329839,40.20521323
332,2006-0624,Kenya,Ijara,Flood,2006,10/23/2006,114,-1.51304614,40.83537655
333,2006-0624,Kenya,Wajir,Flood,2006,10/23/2006,114,1.810796847,40.033724
334,2006-0624,Kenya,Kilifi,Flood,2006,10/23/2006,114,-3.173329786,39.68661267
335,2006-0624,Kenya,Moyale,Flood,2006,10/23/2006,114,3.138993816,38.82361968
336,2006-0624,Uganda,Kumi,Flood,2006,10/23/2006,0,1.440651322,33.96815493
337,2006-0624,Uganda,Kayunga,Flood,2006,10/23/2006,0,0.977925008,32.89005431
338,2006-0624,Uganda,Mukono,Flood,2006,10/23/2006,0,0.360405387,32.92541074
339,2006-0624,Uganda,Kabale,Flood,2006,10/23/2006,0,-1.221795861,29.97889327
340,2006-0624,Uganda,Kisoro,Flood,2006,10/23/2006,0,-1.219963977,29.68078176
341,2006-0624,Uganda,Butaleja,Flood,2006,10/23/2006,0,0.911576186,33.98047424
342,2006-0624,Uganda,Kaliro,Flood,2006,10/23/2006,0,-0.28305861,31.18291283
343,2006-0701,Burundi,Cibitoke,Flood,2006,12/1/2006,0,-2.819053775,29.22925396
344,2006-0711,Chad,Doba,Flood,2006,9/5/2006,52,8.647335038,16.93334169
345,2006-9233,Guinea-Bissau,Quinara,Drought,2006,5/1/2006,0,11.66393571,-15.18687127
346,2006-9425,Mali,Kidal province,Drought,2006,8/1/2006,0,19.47395567,1.143573524
347,2007-0008,Malawi,Chikwawa,Flood,2007,1/8/2007,2,-16.16657424,34.70983653
348,2007-0010,Angola,Cuando Cubango,Flood,2007,1/10/2007,0,-16.11855256,19.51596434
349,2007-0010,Angola,Huambo,Flood,2007,1/10/2007,0,-12.56992312,15.74654049
350,2007-0010,Angola,Malanje,Flood,2007,1/10/2007,0,-9.488928542,16.95840881
351,2007-0010,Zambia,North-Western,Flood,2007,1/10/2007,4,-13.03297593,25.05691674
352,2007-0010,Zambia,Copperbelt,Flood,2007,1/10/2007,4,-13.1149717,27.84704522
353,2007-0010,Zambia,Western,Flood,2007,1/10/2007,4,-15.64397925,23.67196792
354,2007-0020,Mozambique,Gurue,Flood,2007,1/17/2007,29,-15.35049859,36.94828272
355,2007-0020,Mozambique,Quelimane,Flood,2007,1/17/2007,29,-17.85806251,36.91355453
356,2007-0020,Mozambique,Namacurra,Flood,2007,1/17/2007,29,-17.48051344,37.07546732
357,2007-0020,Mozambique,Mocuba,Flood,2007,1/17/2007,29,-16.85294388,36.8632709
358,2007-0020,Mozambique,Maganja da Costa,Flood,2007,1/17/2007,29,-17.10548625,37.62560237
359,2007-0020,Mozambique,Mopeia,Flood,2007,1/17/2007,29,-17.83042469,36.05903694
360,2007-0020,Mozambique,Chinde,Flood,2007,1/17/2007,29,-18.37436579,36.33504942
361,2007-0020,Mozambique,Tambara,Flood,2007,1/17/2007,29,-16.96116036,34.10481168
362,2007-0020,Mozambique,Guro,Flood,2007,1/17/2007,29,-16.97238109,33.53685785
363,2007-0020,Mozambique,Marromeu,Flood,2007,1/17/2007,29,-18.43526513,35.75569246
364,2007-0020,Mozambique,Chemba,Flood,2007,1/17/2007,29,-17.2038874,34.62952709
365,2007-0020,Mozambique,Chibabava,Flood,2007,1/17/2007,29,-20.39074454,33.88663631
366,2007-0020,Mozambique,Mutarara,Flood,2007,1/17/2007,29,-16.86997563,34.7767421
367,2007-0020,Mozambique,Zumbo,Flood,2007,1/17/2007,29,-15.22877349,30.93504634
368,2007-0020,Mozambique,Moatize,Flood,2007,1/17/2007,29,-15.9612463,33.98402888
369,2007-0020,Mozambique,Magoe,Flood,2007,1/17/2007,29,-15.90174503,31.36342602
370,2007-0020,Mozambique,Cahora Bassa,Flood,2007,1/17/2007,29,-16.02275181,32.50523374
371,2007-0020,Mozambique,Moma,Flood,2007,1/17/2007,29,-16.35531865,39.26942077
372,2007-0027,Angola,Huambo,Flood,2007,1/17/2007,105,-12.56992312,15.74654049
373,2007-0027,Angola,Bengo,Flood,2007,1/17/2007,105,-8.977544048,13.88121069
374,2007-0027,Angola,Benguela,Flood,2007,1/17/2007,105,-12.93351173,13.98970619
375,2007-0028,Burundi,Bubanza,Flood,2007,1/1/2007,4,-3.124941796,29.39958476
376,2007-0028,Burundi,Cibitoke,Flood,2007,1/1/2007,4,-2.820362065,29.22962419
377,2007-0028,Burundi,Karuzi,Flood,2007,1/1/2007,4,-3.137020391,30.12054744
378,2007-0032,Madagascar,Mananjary,Storm,2007,1/3/2007,1,-21.20064377,48.09200635
379,2007-0040,Zambia,Chama,Flood,2007,1/20/2007,0,-11.21088517,32.81708845
380,2007-0059,Rwanda,Rubavu,Flood,2007,2/3/2007,10,-1.665998006,29.33106868
381,2007-0080,Zimbabwe,Odzi,Storm,2007,2/27/2007,0,-19.2218785,32.43021738
382,2007-0095,Madagascar,Diana,Storm,2007,3/15/2007,80,-13.34348631,48.9252206
383,2007-0095,Madagascar,Sofia,Storm,2007,3/15/2007,80,-15.34285924,48.29327119
384,2007-0116,Algeria,Relizane,Flood,2007,3/21/2007,15,35.8007319,0.799841836
385,2007-0116,Algeria,Oran,Flood,2007,3/21/2007,15,35.65022649,-0.600139593
386,2007-0177,Kenya,Mombasa,Flood,2007,5/15/2007,2,-4.01452028,39.65358019
387,2007-0177,Kenya,Malindi,Flood,2007,5/15/2007,2,-3.211907141,39.91443501
388,2007-0177,Kenya,Kwale,Flood,2007,5/15/2007,2,-4.144062115,39.15480063
389,2007-0261,Sudan,White Nile,Flood,2007,7/3/2007,150,13.40506842,32.35100786
390,2007-0261,Sudan,Khartoum,Flood,2007,7/3/2007,150,15.84371653,32.80459422
391,2007-0261,Sudan,Blue Nile,Flood,2007,7/3/2007,150,11.26783612,34.12527881
392,2007-0261,Sudan,Southern Kordofan,Flood,2007,7/3/2007,150,11.29265135,30.82232038
393,2007-0261,Sudan,Sennar,Flood,2007,7/3/2007,150,12.89651755,34.0528914
394,2007-0275,Mali,Segou,Flood,2007,7/4/2007,9,13.81201315,-5.697989174
395,2007-0275,Mali,Kayes,Flood,2007,7/4/2007,9,13.87280749,-10.23076347
396,2007-0275,Mali,Sikasso,Flood,2007,7/4/2007,9,11.43183956,-6.559005219
397,2007-0275,Mali,Koulikoro,Flood,2007,7/4/2007,9,13.62428613,-7.645623989
398,2007-0275,Mali,Gao,Flood,2007,7/4/2007,9,16.79356743,1.347846672
399,2007-0304,Ethiopia,Gambela,Flood,2007,7/29/2007,17,7.707367955,34.32862318
400,2007-0304,Ethiopia,Amhara,Flood,2007,7/29/2007,17,11.56246815,38.04693811
401,2007-0304,Ethiopia,SNNPR,Flood,2007,7/29/2007,17,6.466660332,36.81073288
402,2007-0304,Ethiopia,Afar,Flood,2007,7/29/2007,17,12.03494154,40.76807839
403,2007-0304,Ethiopia,Tigray,Flood,2007,7/29/2007,17,13.77592074,38.44207577
404,2007-0305,Burkina Faso,Yatenga,Flood,2007,7/26/2007,52,13.60296161,-2.385696986
405,2007-0305,Burkina Faso,Passore,Flood,2007,7/26/2007,52,12.90105042,-2.169687078
406,2007-0305,Burkina Faso,Bam,Flood,2007,7/26/2007,52,13.47055,-1.586858017
407,2007-0305,Burkina Faso,Namentenga,Flood,2007,7/26/2007,52,13.18011607,-0.508368075
408,2007-0339,Mauritania,Guidimakha,Flood,2007,8/7/2007,2,15.37775715,-12.12547638
409,2007-0389,Niger,Zinder,Flood,2007,7/26/2007,7,14.98556837,10.03037009
410,2007-0389,Niger,Maradi,Flood,2007,7/26/2007,7,14.11537985,7.299652875
411,2007-0389,Niger,Agadez,Flood,2007,7/26/2007,7,19.48356243,10.51824021
412,2007-0389,Niger,Tahoua,Flood,2007,7/26/2007,7,15.77600267,5.227769099
413,2007-0389,Niger,Tillaberi,Flood,2007,7/26/2007,7,14.18556471,2.188435162
414,2007-0408,Uganda,Amuria,Flood,2007,8/15/2007,29,2.00905025,33.6356334
415,2007-0408,Uganda,Bukedea,Flood,2007,8/15/2007,29,1.364122669,34.12167357
416,2007-0408,Uganda,Soroti,Flood,2007,8/15/2007,29,1.609776337,33.46576073
417,2007-0408,Uganda,Amuru,Flood,2007,8/15/2007,29,2.864248792,31.7021337
418,2007-0408,Uganda,Kitgum,Flood,2007,8/15/2007,29,3.48928857,32.95513251
419,2007-0408,Uganda,Pader,Flood,2007,8/15/2007,29,2.922897385,33.11311581
420,2007-0408,Uganda,Amolatar,Flood,2007,8/15/2007,29,1.575060999,32.86010317
421,2007-0408,Uganda,Dokolo,Flood,2007,8/15/2007,29,1.942038665,33.07869281
422,2007-0408,Uganda,Oyam,Flood,2007,8/15/2007,29,2.370961029,32.48765909
423,2007-0408,Uganda,Abim,Flood,2007,8/15/2007,29,2.702599439,33.6340221
424,2007-0408,Uganda,Kaabong,Flood,2007,8/15/2007,29,3.558954475,34.11921174
425,2007-0408,Uganda,Moroto,Flood,2007,8/15/2007,29,2.504859138,34.39240945
426,2007-0408,Uganda,Nakapiripirit,Flood,2007,8/15/2007,29,1.865158727,34.64910502
427,2007-0408,Uganda,Bududa,Flood,2007,8/15/2007,29,1.027245901,34.31936419
428,2007-0408,Uganda,Bukwo,Flood,2007,8/15/2007,29,1.249070179,34.66792959
429,2007-0408,Uganda,Adjumani,Flood,2007,8/15/2007,29,3.228940408,31.76921686
430,2007-0408,Uganda,Arua,Flood,2007,8/15/2007,29,3.055479605,31.1020291
431,2007-0408,Uganda,Moyo,Flood,2007,8/15/2007,29,3.530972131,31.67150657
432,2007-0408,Uganda,Nebbi,Flood,2007,8/15/2007,29,2.48031139,31.15841873
433,2007-0408,Uganda,Yumbe,Flood,2007,8/15/2007,29,3.525476834,31.28857773
434,2007-0408,Uganda,Kiboga,Flood,2007,8/15/2007,29,1.014647739,31.76252114
435,2007-0419,Nigeria,Plateau,Flood,2007,8/4/2007,68,9.208963894,9.548720569
436,2007-0419,Nigeria,Adamawa,Flood,2007,8/4/2007,68,9.343554959,12.44482498
437,2007-0419,Nigeria,Borno,Flood,2007,8/4/2007,68,11.8952875,13.1767764
438,2007-0419,Nigeria,Anambra,Flood,2007,8/4/2007,68,6.206837363,6.931034408
439,2007-0419,Nigeria,Bauchi,Flood,2007,8/4/2007,68,10.77576006,9.987113629
440,2007-0419,Nigeria,Yobe,Flood,2007,8/4/2007,68,12.29652727,11.44253345
441,2007-0419,Nigeria,Ogun,Flood,2007,8/4/2007,68,7.001679938,3.467414423
442,2007-0419,Nigeria,Lagos,Flood,2007,8/4/2007,68,6.526077403,3.553893496
443,2007-0419,Nigeria,Sokoto,Flood,2007,8/4/2007,68,13.03584217,5.317541308
444,2007-0427,Senegal,Thies,Flood,2007,8/9/2007,8,14.83108166,-16.7552175
445,2007-0427,Senegal,Matam,Flood,2007,8/9/2007,8,15.14321577,-13.72726761
446,2007-0427,Senegal,Kaolack,Flood,2007,8/9/2007,8,13.97026542,-15.9316131
447,2007-0427,Senegal,Dakar,Flood,2007,8/9/2007,8,14.75388164,-17.26657191
448,2007-0441,Ghana,Bongo,Flood,2007,8/10/2007,56,10.91433559,-0.792827608
449,2007-0441,Ghana,Garu Tempane,Flood,2007,8/10/2007,56,10.83205609,-0.167421384
450,2007-0441,Ghana,Talensi,Flood,2007,8/10/2007,56,10.68061217,-0.703568304
451,2007-0441,Ghana,Upper West,Flood,2007,8/10/2007,56,10.39627769,-2.209558867
452,2007-0441,Ghana,Northern,Flood,2007,8/10/2007,56,9.353679644,-0.966020685
453,2007-0442,Rwanda,Nyabihu,Flood,2007,9/12/2007,20,-1.647527626,29.51057418
454,2007-0449,Algeria,Tiaret,Flood,2007,9/21/2007,18,34.96496777,1.530398332
455,2007-0449,Algeria,Tissemsilt,Flood,2007,9/21/2007,18,35.75786318,1.809620252
456,2007-0449,Algeria,Chlef,Flood,2007,9/21/2007,18,36.23913848,1.255052328
457,2007-0449,Algeria,Blida,Flood,2007,9/21/2007,18,36.49210826,2.920971089
458,2007-0449,Algeria,Tipaza,Flood,2007,9/21/2007,18,36.51993168,2.214876038
459,2007-0449,Algeria,Alger,Flood,2007,9/21/2007,18,36.707393,3.056515494
460,2007-0449,Algeria,Tizi Ouzou,Flood,2007,9/21/2007,18,36.67457384,4.203980628
461,2007-0449,Algeria,Bouira,Flood,2007,9/21/2007,18,36.2529217,3.845134023
462,2007-0449,Algeria,Bejaia,Flood,2007,9/21/2007,18,36.57848435,4.838826693
463,2007-0449,Algeria,Jijel,Flood,2007,9/21/2007,18,36.70100955,5.970304768
464,2007-0449,Algeria,Khenchela,Flood,2007,9/21/2007,18,34.98236823,6.996738835
465,2007-0501,Tunisia,Tunis,Flood,2007,10/13/2007,16,36.81553623,10.16357475
466,2007-0501,Tunisia,Ariana,Flood,2007,10/13/2007,16,36.96915982,10.11546182
467,2007-0539,Burundi,Cibitoke,Flood,2007,10/15/2007,1,-2.820362065,29.22962419
468,2007-0568,Algeria,Bouzareah,Flood,2007,11/24/2007,14,36.78232484,3.021624121
469,2007-0568,Algeria,Dellys,Flood,2007,11/24/2007,14,36.88210096,3.917202394
470,2007-0585,Malawi,Balaka,Flood,2007,11/18/2007,0,-15.03607268,35.05558875
471,2007-0585,Malawi,Blantyre,Flood,2007,11/18/2007,0,-15.66959579,34.94532629
472,2007-0585,Malawi,Machinga,Flood,2007,11/18/2007,0,-14.94298057,35.5674799
473,2007-0585,Malawi,Chitipa,Flood,2007,11/18/2007,0,-9.952477104,33.4867804
474,2007-0585,Malawi,Karonga,Flood,2007,11/18/2007,0,-10.08045636,34.09218317
475,2007-0585,Malawi,Mzimba,Flood,2007,11/18/2007,0,-11.78658669,33.6397272
476,2007-0595,Nigeria,Ikorodu,Flood,2007,8/1/2007,6,6.625776133,3.560167406
477,2007-0614,Mozambique,Nhamayabue,Flood,2007,12/11/2007,20,-17.05759062,35.00437752
478,2007-0614,Mozambique,Mossurize,Flood,2007,12/11/2007,20,-20.51228651,32.9445211
479,2007-0614,Mozambique,Mopeia,Flood,2007,12/11/2007,20,-17.83042469,36.05903694
480,2007-0614,Mozambique,Chinde,Flood,2007,12/11/2007,20,-18.37436579,36.33504942
481,2007-0614,Mozambique,Morrumbala,Flood,2007,12/11/2007,20,-17.05499807,35.78947109
482,2007-0614,Mozambique,Maganja da Costa,Flood,2007,12/11/2007,20,-17.10548625,37.62560237
483,2007-0614,Mozambique,Namacurra,Flood,2007,12/11/2007,20,-17.48051344,37.07546732
484,2007-0614,Mozambique,Nampula,Flood,2007,12/11/2007,20,-14.96481585,39.24779415
485,2007-0614,Mozambique,Cabo Delgado,Flood,2007,12/11/2007,20,-12.45862046,39.36667124
486,2007-0614,Malawi,Machinga,Flood,2007,11/11/2007,0,-14.94298057,35.5674799
487,2007-0616,Zimbabwe,Chiredzi,Flood,2007,12/19/2007,24,-21.34289229,31.68012541
488,2007-0633,Zambia,Monze,Flood,2007,12/30/2007,10,-16.12921347,27.41944
489,2007-0633,Zambia,Mazabuka,Flood,2007,12/30/2007,10,-15.89100316,27.9084661
490,2007-0633,Zambia,Siavonga,Flood,2007,12/30/2007,10,-16.28640904,28.51310616
491,2007-0633,Zambia,Sinazongwe,Flood,2007,12/30/2007,10,-17.37274231,27.29150372
492,2007-0633,Zambia,Mumbwa,Flood,2007,12/30/2007,10,-14.9952785,26.60264041
493,2007-9343,Mozambique,Gaza,Drought,2007,8/1/2007,0,-23.32047206,32.8040835
494,2007-9494,Lesotho,Maseru,Drought,2007,7/1/2007,0,-29.56468597,27.79843853
495,2007-9499,Malawi,Karonga,Drought,2007,10/1/2007,0,-10.07970951,34.09101399
496,2007-9675,Zimbabwe,Masvingo,Drought,2007,1/1/2007,0,-20.78342273,31.24246686
497,2008-0040,Rwanda,Cyangugu,Earthquake,2008,2/3/2008,36,-2.561270536,29.08046151
498,2008-0043,Madagascar,Melaky,Storm,2008,1/27/2008,12,-17.71416931,44.80830408
499,2008-0043,Madagascar,Boeny,Storm,2008,1/27/2008,12,-16.27191218,46.2175861
500,2008-0060,Angola,Calai,Flood,2008,1/31/2008,7,-17.36904301,19.41441566
501,2008-0060,Angola,Nankova,Flood,2008,1/31/2008,7,-16.39029971,18.73297559
502,2008-0060,Angola,Rivungo,Flood,2008,1/31/2008,7,-16.85911827,21.94997308
503,2008-0060,Angola,Mavinga,Flood,2008,1/31/2008,7,-16.12568198,20.29112373
504,2008-0060,Angola,Namibe,Flood,2008,1/31/2008,7,-15.49273632,12.72775373
505,2008-0060,Angola,Huila,Flood,2008,1/31/2008,7,-14.74304821,14.95081339
506,2008-0060,Namibia,Omusati,Flood,2008,1/30/2008,42,-18.27964408,14.89457675
507,2008-0060,Namibia,Oshana,Flood,2008,1/30/2008,42,-18.43009783,15.72291694
508,2008-0060,Namibia,Oshikoto,Flood,2008,1/30/2008,42,-18.59833166,17.00453393
509,2008-0060,Namibia,Ohangwena,Flood,2008,1/30/2008,42,-17.58441259,16.8131225
510,2008-0070,Madagascar,Betsiboka,Storm,2008,2/17/2008,93,-17.2257257,46.99701129
511,2008-0111,Mozambique,Mossuril,Storm,2008,3/8/2008,9,-15.05929932,40.51864542
512,2008-0111,Mozambique,Moma,Storm,2008,3/8/2008,9,-16.35531865,39.26942077
513,2008-0111,Mozambique,Zambezia,Storm,2008,3/8/2008,9,-16.65133304,36.98316268
514,2008-0291,Togo,Agou,Flood,2008,7/1/2008,6,7.542031344,1.001544382
515,2008-0291,Togo,Kloto,Flood,2008,7/1/2008,6,6.976381707,0.759479296
516,2008-0291,Togo,Vo,Flood,2008,7/1/2008,6,6.373258405,1.49586122
517,2008-0296,Niger,Zinder,Flood,2008,7/1/2008,7,14.98697187,10.03136022
518,2008-0410,Senegal,Diourbel,Flood,2008,8/15/2008,1,14.7820716,-16.11981941
519,2008-0410,Senegal,Kaolack,Flood,2008,8/15/2008,1,13.97026542,-15.9316131
520,2008-0459,Burundi,Mutambu,Flood,2008,9/20/2008,3,-3.529311135,29.43399578
521,2008-0459,Burundi,Kabezi,Flood,2008,9/20/2008,3,-3.534040627,29.36829095
522,2008-0459,Burundi,Muhuta,Flood,2008,9/20/2008,3,-3.62489902,29.41517369
523,2008-0459,Burundi,Nyamurenza,Flood,2008,9/20/2008,3,-2.810710706,29.88204687
524,2008-0485,Rwanda,Rubavu,Flood,2008,10/1/2008,0,-1.665998006,29.33106868
525,2008-0485,Rwanda,Ngoma,Flood,2008,10/1/2008,0,-2.183498278,30.45552992
526,2008-0517,Ethiopia,Mustahil,Flood,2008,11/16/2008,11,5.452177031,44.76028407
527,2008-0517,Ethiopia,Kelafo,Flood,2008,11/16/2008,11,5.739242392,44.17314558
528,2008-0518,Kenya,Mandera,Flood,2008,11/10/2008,17,3.438423986,40.73672875
529,2008-0518,Kenya,Garissa,Flood,2008,11/10/2008,17,-0.490329839,40.20521323
530,2008-0518,Kenya,Migori,Flood,2008,11/10/2008,17,-0.989661846,34.36557024
531,2008-0527,Uganda,Adjumani,Flood,2008,11/17/2008,49,3.228940408,31.76921686
532,2008-0527,Uganda,Moyo,Flood,2008,11/17/2008,49,3.530972131,31.67150657
533,2008-0527,Uganda,Nakapiripirit,Flood,2008,11/17/2008,49,1.865158727,34.64910502
534,2008-0527,Uganda,Moroto,Flood,2008,11/17/2008,49,2.504859138,34.39240945
535,2008-0527,Uganda,Kaabong,Flood,2008,11/17/2008,49,3.558954475,34.11921174
536,2008-0527,Uganda,Abim,Flood,2008,11/17/2008,49,2.702599439,33.6340221
537,2008-0527,Uganda,Kiboga,Flood,2008,11/17/2008,49,1.014647739,31.76252114
538,2008-0527,Uganda,Kayunga,Flood,2008,11/17/2008,49,0.977925008,32.89005431
539,2008-0554,South Sudan,Jonglei,Flood,2008,11/24/2008,0,7.378792852,32.32764574
540,2008-0554,South Sudan,Upper Nil,Flood,2008,11/24/2008,0,9.888035633,32.79589909
541,2008-0628,Mozambique,Mossurize,Flood,2008,12/28/2008,25,-20.51228651,32.9445211
542,2008-0628,Mozambique,Maputo,Flood,2008,12/28/2008,25,-25.88858285,32.56003954
543,2008-0628,Mozambique,Inhambane,Flood,2008,12/28/2008,25,-22.80887901,34.51464613
544,2008-0628,Mozambique,Gaza,Flood,2008,12/28/2008,25,-23.32047206,32.8040835
545,2008-0630,Ghana,West Mamprusi,Flood,2008,7/1/2008,0,10.29697012,-1.064879308
546,2008-0639,Malawi,Balaka,Flood,2008,12/1/2008,0,-15.03643071,35.0561911
547,2008-9200,Ethiopia,Oromia,Drought,2008,5/1/2008,0,7.507236611,38.76544158
548,2008-9302,Kenya,Sacho,Drought,2008,7/1/2008,4,0.388403937,35.74599628
549,2008-9307,Uganda,Nakapiripit,Drought,2008,7/1/2008,0,1.865529787,34.6500087
550,2008-9590,Mozambique,Maputo,Drought,2008,12/1/2008,0,-25.52759199,32.45011452
551,2008-9640,Burundi,Kirundo,Drought,2008,9/1/2008,0,-2.544018995,30.15764447
552,2008-9644,Madagascar,Atsimo Andrefana,Drought,2008,2008,0,-23.05597902,44.43057924
553,2009-0019,Algeria,Tsabit,Flood,2009,1/20/2009,33,28.52243358,-1.256610717
554,2009-0019,Algeria,Ouargla,Flood,2009,1/20/2009,33,31.12645178,6.112294053
555,2009-0019,Algeria,Tlemcen,Flood,2009,1/20/2009,33,34.72738922,-1.403609096
556,2009-0019,Algeria,Oran,Flood,2009,1/20/2009,33,35.65022649,-0.600139593
557,2009-0019,Algeria,Mostaganem,Flood,2009,1/20/2009,33,35.98730491,0.330881926
558,2009-0019,Algeria,Medea,Flood,2009,1/20/2009,33,35.97846063,2.922806182
559,2009-0019,Algeria,Alger,Flood,2009,1/20/2009,33,36.707393,3.056515494
560,2009-0019,Algeria,Boumerdes,Flood,2009,1/20/2009,33,36.72789281,3.636741514
561,2009-0019,Algeria,Tizi Ouzou,Flood,2009,1/20/2009,33,36.67457384,4.203980628
562,2009-0047,Madagascar,Sava,Storm,2009,1/19/2009,12,-14.31236222,49.824274
563,2009-0047,Madagascar,Atsinanana,Storm,2009,1/19/2009,12,-19.10030333,48.68704187
564,2009-0092,Angola,Mupa,Flood,2009,3/1/2009,60,-16.20006451,15.84418871
565,2009-0092,Angola,Onjiva,Flood,2009,3/1/2009,60,-17.09348436,15.66575761
566,2009-0092,Angola,Evale,Flood,2009,3/1/2009,60,-16.53153266,15.77398677
567,2009-0092,Angola,Moxico,Flood,2009,3/1/2009,60,-12.88002552,21.03889891
568,2009-0092,Angola,Bie,Flood,2009,3/1/2009,60,-12.32493312,17.36258115
569,2009-0092,Angola,Lunda Sul,Flood,2009,3/1/2009,60,-10.17646249,20.65598238
570,2009-0092,Comoros,Anjouan,Flood,2009,4/20/2009,2,-12.32394121,43.73359321
571,2009-0092,Namibia,Kavango,Flood,2009,3/1/2009,92,-18.36868782,19.75014915
572,2009-0092,Namibia,Caprivi,Flood,2009,3/1/2009,92,-17.86324222,23.84288669
573,2009-0103,Zambia,Mongu,Flood,2009,2/27/2009,31,-15.23872858,23.50236236
574,2009-0103,Zambia,Kalabo,Flood,2009,2/27/2009,31,-15.10973088,22.42626141
575,2009-0103,Zambia,Lukulu,Flood,2009,2/27/2009,31,-14.23872825,23.3395066
576,2009-0103,Zambia,North-Western,Flood,2009,2/27/2009,31,-13.03297593,25.05691674
577,2009-0103,Zambia,Northern,Flood,2009,2/27/2009,31,-9.720136313,30.66660631
578,2009-0137,Madagascar,Nosy Varika,Storm,2009,4/6/2009,15,-20.56536387,48.17088823
579,2009-0137,Madagascar,Mananjary,Storm,2009,4/6/2009,15,-21.20064377,48.09200635
580,2009-0137,Madagascar,Vohipeno,Storm,2009,4/6/2009,15,-22.34453009,47.72050418
581,2009-0137,Madagascar,Amparafaravola,Storm,2009,4/6/2009,15,-17.45254549,48.3137426
582,2009-0160,Central African Republic,Mboki,Storm,2009,3/23/2009,0,5.538543175,26.51618394
583,2009-0160,Central African Republic,Zangba,Storm,2009,3/23/2009,0,4.893156204,21.36313195
584,2009-0233,Botswana,Bobirwa,Flood,2009,5/10/2009,0,-21.98332533,28.1310216
585,2009-0233,Botswana,Mahalapye,Flood,2009,5/10/2009,0,-23.26028969,26.33314886
586,2009-0236,Ghana,Sanata Maria,Flood,2009,6/6/2009,16,5.821748049,0.065873422
587,2009-0236,Ghana,Atonsu,Flood,2009,6/6/2009,16,6.689428886,-1.596809847
588,2009-0236,Ghana,Mfantsiman,Flood,2009,6/6/2009,16,5.259026625,-1.015210472
589,2009-0243,Benin,Vossa,Flood,2009,6/22/2009,7,8.522382637,2.482025779
590,2009-0344,Senegal,Dakar,Flood,2009,8/24/2009,6,14.75388164,-17.26657191
591,2009-0344,Senegal,Kaolack,Flood,2009,8/24/2009,6,13.97026542,-15.9316131
592,2009-0344,Senegal,Kaffrine,Flood,2009,8/24/2009,6,14.21789849,-15.18627246
593,2009-0344,Senegal,Thies,Flood,2009,8/24/2009,6,14.83108166,-16.7552175
594,2009-0344,Senegal,Fatick,Flood,2009,8/24/2009,6,14.16013181,-16.34494262
595,2009-0344,Senegal,Matam,Flood,2009,8/24/2009,6,15.14321577,-13.72726761
596,2009-0344,Senegal,Tambacounda,Flood,2009,8/24/2009,6,13.89099498,-13.22561827
597,2009-0344,Senegal,Kedougou,Flood,2009,8/24/2009,6,12.84379232,-12.19544526
598,2009-0375,Nigeria,Zamfara,Flood,2009,9/10/2009,0,12.08786821,6.260933842
599,2009-0375,Nigeria,Kaduna,Flood,2009,9/10/2009,0,10.35507132,7.705680097
600,2009-0375,Nigeria,Niger,Flood,2009,9/10/2009,0,9.93437545,5.599749648
601,2009-0375,Nigeria,Benue,Flood,2009,9/10/2009,0,7.324393181,8.758319739
602,2009-0375,Nigeria,Adamawa,Flood,2009,9/10/2009,0,9.343554959,12.44482498
603,2009-0375,Nigeria,Nassarawa,Flood,2009,9/10/2009,0,8.498966396,8.189571934
604,2009-0375,Nigeria,Sokoto,Flood,2009,9/10/2009,0,13.03584217,5.317541308
605,2009-0375,Nigeria,Jigawa,Flood,2009,9/10/2009,0,12.21567495,9.550513513
606,2009-0379,Sudan,Blue Nile,Flood,2009,8/16/2009,20,11.26783612,34.12527881
607,2009-0379,Sudan,Kassala,Flood,2009,8/16/2009,20,15.98884127,35.75058371
608,2009-0394,Algeria,Biskra,Flood,2009,9/10/2009,15,34.46890747,5.335004601
609,2009-0412,Tunisia,Gabes,Flood,2009,9/22/2009,17,33.7990947,10.09102129
610,2009-0412,Tunisia,Monastir,Flood,2009,9/22/2009,17,35.61695891,10.75674033
611,2009-0412,Tunisia,Mahdia,Flood,2009,9/22/2009,17,35.33850338,10.6337978
612,2009-0412,Tunisia,Sfax,Flood,2009,9/22/2009,17,34.77652285,10.38235622
613,2009-0412,Tunisia,Tozeur,Flood,2009,9/22/2009,17,33.93983661,7.989640599
614,2009-0433,Chad,Toukra,Flood,2009,9/12/2009,3,11.75133393,15.2545594
615,2009-0494,Kenya,Malindi,Flood,2009,10/29/2009,16,-3.211907141,39.91443501
616,2009-0523,Mali,Kayes,Flood,2009,5/1/2009,25,13.87291309,-10.23041578
617,2009-0532,Somalia,Ceel Waaq,Flood,2009,10/23/2009,0,2.660944906,41.44936785
618,2009-0550,Angola,Terra Nova,Flood,2009,12/10/2009,0,-8.831550033,13.25888884
619,2009-0597,Kenya,Laikipia,Flood,2009,12/24/2009,40,0.330534087,36.77142682
620,2009-0597,Kenya,Kajiado,Flood,2009,12/24/2009,40,-2.119406153,36.90515523
621,2009-0597,Kenya,Koibatek,Flood,2009,12/24/2009,40,-0.050845287,35.79254889
622,2009-0597,Kenya,Narok,Flood,2009,12/24/2009,40,-1.25082286,35.57394393
623,2009-0597,Kenya,West Pokot,Flood,2009,12/24/2009,40,1.730128266,35.24732925
624,2009-0597,Kenya,Kericho,Flood,2009,12/24/2009,40,-0.28635268,35.31502648
625,2009-0597,Kenya,Isiolo,Flood,2009,12/24/2009,40,1.01242812,38.54132722
626,2009-9615,Ethiopia,Somali,Drought,2009,1/1/2009,0,6.918982846,43.33582439
627,2009-9633,South Sudan,Unity,Drought,2009,2009,0,8.926421189,29.88578342
628,2009-9651,Niger,Agadez,Drought,2009,9/1/2009,0,19.48541641,10.51799236
629,2009-9654,Chad,Kanem,Drought,2009,12/1/2009,0,15.13281125,15.26495581
630,2010-0021,Egypt,Ras Sidr,Flood,2010,1/18/2010,12,29.5869642,33.30633097
631,2010-0021,Egypt,Nuweiba,Flood,2010,1/18/2010,12,29.30004466,34.32802982
632,2010-0094,Kenya,Turkana,Flood,2010,3/1/2010,94,3.265351693,35.43301285
633,2010-0094,Kenya,Samburu,Flood,2010,3/1/2010,94,1.321851983,37.11836982
634,2010-0094,Kenya,Nakuru,Flood,2010,3/1/2010,94,-0.459330964,36.07893816
635,2010-0094,Kenya,Malindi,Flood,2010,3/1/2010,94,-3.211907141,39.91443501
636,2010-0097,Mozambique,Buzi,Flood,2010,2/22/2010,5,-20.02535278,34.35992179
637,2010-0097,Mozambique,Chemba,Flood,2010,2/22/2010,5,-17.2038874,34.62952709
638,2010-0097,Mozambique,Nhamatanda,Flood,2010,2/22/2010,5,-19.33315263,34.24020929
639,2010-0097,Mozambique,Caia,Flood,2010,2/22/2010,5,-17.78400452,35.00329921
640,2010-0097,Mozambique,Dondo,Flood,2010,2/22/2010,5,-19.54284774,34.84722559
641,2010-0097,Mozambique,Chinde,Flood,2010,2/22/2010,5,-18.37436579,36.33504942
642,2010-0097,Mozambique,Tambara,Flood,2010,2/22/2010,5,-16.96116036,34.10481168
643,2010-0097,Mozambique,Nampula,Flood,2010,2/22/2010,5,-14.96481585,39.24779415
644,2010-0105,Angola,Evale,Flood,2010,3/1/2010,7,-16.53153266,15.77398677
645,2010-0105,Angola,Moxico province,Flood,2010,3/1/2010,7,-12.88002552,21.03889891
646,2010-0116,Zambia,Sinazongwe,Flood,2010,3/1/2010,0,-17.37274231,27.29150372
647,2010-0116,Zambia,Livingstone,Flood,2010,3/1/2010,0,-17.69406408,25.90243622
648,2010-0116,Zambia,Mpulungu,Flood,2010,3/1/2010,0,-8.992771722,30.88237199
649,2010-0116,Zambia,North-Western,Flood,2010,3/1/2010,0,-13.03297593,25.05691674
650,2010-0122,Burundi,Cibitoke,Flood,2010,2/1/2010,0,-2.819053775,29.22925396
651,2010-0128,Namibia,Kavango,Flood,2010,3/24/2010,8,-18.36868782,19.75014915
652,2010-0128,Namibia,Oshana,Flood,2010,3/24/2010,8,-18.43009783,15.72291694
653,2010-0246,Ghana,Ga West,Flood,2010,6/20/2010,45,5.654720378,-0.389706541
654,2010-0295,Niger,Zinder,Flood,2010,7/19/2010,2,14.98556837,10.03037009
655,2010-0300,Burkina Faso,Soum,Flood,2010,7/21/2010,16,14.23652855,-1.287680813
656,2010-0300,Burkina Faso,Oudalan,Flood,2010,7/21/2010,16,14.65315234,-0.332164616
657,2010-0300,Burkina Faso,Houet,Flood,2010,7/21/2010,16,11.29185489,-4.255053785
658,2010-0300,Burkina Faso,Bougouriba,Flood,2010,7/21/2010,16,10.89932857,-3.381736246
659,2010-0300,Chad,Tibesti,Flood,2010,8/15/2010,24,21.14961664,16.64773846
660,2010-0300,Chad,Sila,Flood,2010,8/15/2010,24,12.13877695,21.44171123
661,2010-0300,Chad,Logone Oriental,Flood,2010,8/15/2010,24,8.203300409,16.40898281
662,2010-0300,Chad,Logone Occidental,Flood,2010,8/15/2010,24,8.766772218,15.86817343
663,2010-0300,Chad,Salamat,Flood,2010,8/15/2010,24,10.81028419,20.58377886
664,2010-0379,Niger,Niamey,Flood,2010,8/1/2010,3,13.52929382,2.127571286
665,2010-0379,Niger,Zinder,Flood,2010,8/1/2010,3,14.98556837,10.03037009
666,2010-0379,Niger,Maradi,Flood,2010,8/1/2010,3,14.11537985,7.299652875
667,2010-0379,Niger,Agadez,Flood,2010,8/1/2010,3,19.48356243,10.51824021
668,2010-0379,Niger,Tahoua,Flood,2010,8/1/2010,3,15.77600267,5.227769099
669,2010-0379,Niger,Diffa,Flood,2010,8/1/2010,3,15.86080846,13.21383166
670,2010-0450,Ethiopia,Afar,Flood,2010,8/22/2010,19,12.03494154,40.76807839
671,2010-0450,Ethiopia,Amhara,Flood,2010,8/22/2010,19,11.56246815,38.04693811
672,2010-0454,Gambia,Kanifing Municipal Council,Flood,2010,7/15/2010,8,13.44875625,-16.65883889
673,2010-0454,Gambia,Lower River,Flood,2010,7/15/2010,8,13.38649807,-15.74796878
674,2010-0454,Gambia,North Bank,Flood,2010,7/15/2010,8,13.50750852,-16.01010074
675,2010-0454,Gambia,Upper River,Flood,2010,7/15/2010,8,13.39411373,-14.16231552
676,2010-0483,Ghana,Brong Ahafo,Flood,2010,9/1/2010,18,7.706088399,-1.657978191
677,2010-0483,Ghana,Eastern,Flood,2010,9/1/2010,18,6.412756787,-0.450589257
678,2010-0509,Nigeria,Jigawa,Flood,2010,9/13/2010,40,12.21567495,9.550513513
679,2010-0509,Nigeria,Sokoto,Flood,2010,9/13/2010,40,13.03584217,5.317541308
680,2010-0509,Nigeria,Kebbi,Flood,2010,9/13/2010,40,11.7658034,4.500959545
681,2010-0509,Nigeria,Niger,Flood,2010,9/13/2010,40,9.93437545,5.599749648
682,2010-0523,Mauritania,Aleg,Flood,2010,9/19/2010,0,16.97849306,-13.65173331
683,2010-0526,Guinea,Norassoba,Flood,2010,9/15/2010,1,11.14774172,-9.618469801
684,2010-0536,Mali,Kayes,Flood,2010,10/4/2010,0,13.87280749,-10.23076347
685,2010-0536,Mali,Koulikoro,Flood,2010,10/4/2010,0,13.62428613,-7.645623989
686,2010-0536,Mali,Sikasso,Flood,2010,10/4/2010,0,11.43183956,-6.559005219
687,2010-0536,Mali,Mopti,Flood,2010,10/4/2010,0,14.70486596,-3.512185674
688,2010-0536,Mali,Tombouctou,Flood,2010,10/4/2010,0,21.19267524,-3.303516646
689,2010-0536,Mali,Gao,Flood,2010,10/4/2010,0,16.79356743,1.347846672
690,2010-0536,Mali,Kidal,Flood,2010,10/4/2010,0,19.47361032,1.144092946
691,2010-0553,Angola,Huambo,Flood,2010,10/15/2010,18,-12.56992312,15.74654049
692,2010-0553,Angola,Zaire,Flood,2010,10/15/2010,18,-6.607559656,13.56282959
693,2010-0553,Angola,Moxico,Flood,2010,10/15/2010,18,-12.88002552,21.03889891
694,2010-0579,Sudan,White Nile,Flood,2010,7/1/2010,3,13.40506842,32.35100786
695,2010-0579,Sudan,Northern Kordofan,Flood,2010,7/1/2010,3,14.85151104,29.76737159
696,2010-0579,South Sudan,Jonglei,Flood,2010,7/1/2010,0,7.378792852,32.32764574
697,2010-0579,South Sudan,Unity,Flood,2010,7/1/2010,0,8.926421189,29.88578342
698,2010-0613,Morocco,Ouarzazate,Flood,2010,11/25/2010,32,31.09047168,-6.59160149
699,2010-0639,Egypt,Tanta,Storm,2010,12/12/2010,31,30.82036688,30.9784805
700,2010-0678,South Africa,Free State,Storm,2010,12/15/2010,40,-28.61392393,26.86718034
701,2010-0678,South Africa,Mpumalanga,Storm,2010,12/15/2010,40,-25.87414315,30.29894995
702,2010-0678,South Africa,North West,Storm,2010,12/15/2010,40,-26.26786088,25.51992603
703,2010-0678,South Africa,Northern Cape,Storm,2010,12/15/2010,40,-29.4534085,21.40248344
704,2010-0678,South Africa,Limpopo,Storm,2010,12/15/2010,40,-23.78573005,29.28952133
705,2010-0678,South Africa,Gauteng,Storm,2010,12/15/2010,40,-26.10606905,28.12646848
706,2010-9082,Burundi,Kayanza,Drought,2011,2011,0,-3.007285299,29.65896884
707,2010-9082,Ethiopia,Somali,Drought,2011,1/1/2011,0,6.918982846,43.33582439
708,2010-9082,Somalia,Bakool,Drought,2010,2/1/2010,20000,4.203733604,43.9474885
709,2010-9082,Uganda,Kaabong,Drought,2011,3/1/2011,0,3.558186489,34.12007739
710,2010-9181,Zimbabwe,Manicaland,Drought,2010,5/1/2010,0,-19.06116231,32.39751357
711,2010-9249,Mali,Kayes,Drought,2010,6/1/2010,0,13.87291309,-10.23041578
712,2010-9290,Mozambique,Maputo,Drought,2010,3/1/2010,0,-25.52759199,32.45011452
713,2010-9292,Mauritania,Assaba,Drought,2010,2010,0,16.58027373,-11.53599762
714,2011-0003,Angola,Cazenga,Flood,2011,1/3/2011,17,-8.827158398,13.29817335
715,2011-0003,Angola,Samba,Flood,2011,1/3/2011,17,-9.008935568,13.12512277
716,2011-0003,Angola,Cacuaco,Flood,2011,1/3/2011,17,-8.783947786,13.47272257
717,2011-0043,Lesotho,Qacha's Nek,Flood,2011,2/1/2011,26,-29.96574664,28.73857444
718,2011-0043,Lesotho,Mohale's Hoek,Flood,2011,2/1/2011,26,-30.06944537,27.8000134
719,2011-0043,Lesotho,Mokhotlong,Flood,2011,2/1/2011,26,-29.21997355,29.03046457
720,2011-0057,Madagascar,Vohipeno,Storm,2011,2/14/2011,35,-22.34453009,47.72050418
721,2011-0057,Madagascar,Mampikony,Storm,2011,2/14/2011,35,-16.1723969,47.68037653
722,2011-0057,Madagascar,Miandrivazo,Storm,2011,2/14/2011,35,-19.15806195,45.37584922
723,2011-0057,Madagascar,Sambava,Storm,2011,2/14/2011,35,-14.21476942,49.78464448
724,2011-0057,Madagascar,Morafenobe,Storm,2011,2/14/2011,35,-17.92908654,44.96973482
725,2011-0057,Madagascar,Bekily,Storm,2011,2/14/2011,35,-24.25663665,45.40162434
726,2011-0081,Namibia,Kunene,Flood,2011,3/1/2011,108,-19.13446025,13.92780015
727,2011-0081,Namibia,Oshana,Flood,2011,3/1/2011,108,-18.43009783,15.72291694
728,2011-0081,Namibia,Oshikoto,Flood,2011,3/1/2011,108,-18.59833166,17.00453393
729,2011-0081,Namibia,Omusati,Flood,2011,3/1/2011,108,-18.27964408,14.89457675
730,2011-0081,Namibia,Ohangwena,Flood,2011,3/1/2011,108,-17.58441259,16.8131225
731,2011-0081,Namibia,Kavango,Flood,2011,3/1/2011,108,-18.36868782,19.75014915
732,2011-0092,Angola,Cunene,Flood,2011,3/1/2011,113,-16.50351286,15.57852043
733,2011-0092,Zambia,Chavuma,Flood,2011,3/1/2011,0,-13.22367057,22.44419966
734,2011-0180,Burundi,Ngagara,Flood,2011,3/20/2011,0,-3.359259086,29.35840654
735,2011-0180,Burundi,Cibitoke,Flood,2011,3/20/2011,0,-2.820362065,29.22962419
736,2011-0343,Nigeria,Ibadan North,Flood,2011,8/26/2011,120,7.411892432,3.909278704
737,2011-0343,Nigeria,Oluyole,Flood,2011,8/26/2011,120,7.183516837,3.878177187
738,2011-0343,Nigeria,Ido,Flood,2011,8/26/2011,120,7.505281542,3.71163473
739,2011-0343,Nigeria,Egbeda,Flood,2011,8/26/2011,120,7.392201942,4.058841426
740,2011-0343,Nigeria,Ona Ara,Flood,2011,8/26/2011,120,7.252870229,4.041642751
741,2011-0343,Nigeria,Ibadan North East,Flood,2011,8/26/2011,120,7.373931452,3.930477702
742,2011-0343,Nigeria,Lagelu,Flood,2011,8/26/2011,120,7.494530105,4.046716214
743,2011-0376,Uganda,Bulambuli,Flood,2011,8/20/2011,27,1.421010578,34.32627438
744,2011-0376,Uganda,Kween,Flood,2011,8/20/2011,27,1.432909501,34.57276616
745,2011-0376,Uganda,Mbale,Flood,2011,8/20/2011,27,0.968196686,34.29525827
746,2011-0376,Uganda,Butaleja,Flood,2011,8/20/2011,27,0.911576186,33.98047424
747,2011-0376,Uganda,Masaka,Flood,2011,8/20/2011,27,-0.292102802,31.67182954
748,2011-0376,Uganda,Buhweju,Flood,2011,8/20/2011,27,-0.337169688,30.3720596
749,2011-0376,Uganda,Mitooma,Flood,2011,8/20/2011,27,-0.609910037,30.05975068
750,2011-0376,Uganda,Mpigi,Flood,2011,8/20/2011,27,0.162203781,31.91941763
751,2011-0376,Uganda,Kasese,Flood,2011,8/20/2011,27,0.121792156,30.00102736
752,2011-0376,Uganda,Rukungiri,Flood,2011,8/20/2011,27,-0.70157997,29.88687523
753,2011-0413,Ghana,Greater Accra,Flood,2011,10/26/2011,14,5.821748049,0.065873422
754,2011-0413,Ghana,Eastern,Flood,2011,10/26/2011,14,6.411126332,-0.45079031
755,2011-0504,Kenya,Busia,Flood,2011,11/29/2011,25,0.393930648,34.19397582
756,2011-0504,Kenya,Siaya,Flood,2011,11/29/2011,25,-0.054854102,34.2490191
757,2011-0504,Kenya,Rachuonyo,Flood,2011,11/29/2011,25,-0.536907558,34.36343158
758,2011-0504,Kenya,Samburu,Flood,2011,11/29/2011,25,1.321851983,37.11836982
759,2011-0504,Kenya,Marsabit,Flood,2011,11/29/2011,25,2.979020486,37.5691202
760,2011-0523,Angola,Uige province,Flood,2011,12/15/2011,0,-7.024000898,15.47774896
761,2011-0598,Niger,Ouallam,Flood,2011,8/17/2011,9,14.69539889,2.234694449
762,2011-0598,Niger,Tera,Flood,2011,8/17/2011,9,14.19741503,0.853892259
763,2011-0629,Malawi,Thyolo,Flood,2011,12/1/2011,0,-16.10396801,35.14456318
764,2011-0631,Ethiopia,Mustahil,Flood,2011,11/7/2011,0,5.452177031,44.76028407
765,2011-9524,Burkina Faso,Sahel,Drought,2011,12/1/2011,0,14.14637059,-0.440068118
766,2011-9560,Senegal,Kaffrine,Drought,2011,12/1/2011,0,14.21909009,-15.18572045
767,2011-9629,Lesotho,Quthing,Drought,2011,12/1/2011,0,-30.36010491,27.985661
768,2011-9661,Mali,Kayes,Drought,2011,2011,0,13.87291309,-10.23041578
769,2011-9663,Ethiopia,Dire Dawa,Drought,2012,2012,0,9.606269024,42.00302663
770,2011-9663,Kenya,Wajir,Drought,2011,2011,0,1.810589545,40.03406304
771,2011-9663,Somalia,Bakool,Drought,2012,2012,0,4.203733604,43.9474885
772,2012-0005,Mozambique,Chinde,Storm,2012,1/20/2012,10,-18.37436579,36.33504942
773,2012-0005,Mozambique,Pebane,Storm,2012,1/20/2012,10,-16.71857224,38.54005849
774,2012-0005,Mozambique,Maganja da Costa,Storm,2012,1/20/2012,10,-17.10548625,37.62560237
775,2012-0005,Mozambique,Gurue,Storm,2012,1/20/2012,10,-15.35049859,36.94828272
776,2012-0005,Mozambique,Mossuril,Storm,2012,1/20/2012,10,-15.05929932,40.51864542
777,2012-0006,Mozambique,Chokwe,Storm,2012,1/18/2012,20,-24.56177412,32.95529265
778,2012-0006,South Africa,Limpopo,Storm,2012,1/1/2012,0,-23.78533526,29.28976311
779,2012-0034,Algeria,Skikda,Flood,2012,2/3/2012,49,36.7835197,6.833149234
780,2012-0034,Algeria,Boumerdes,Flood,2012,2/3/2012,49,36.72789281,3.636741514
781,2012-0043,Madagascar,Brickaville,Storm,2012,2/14/2012,35,-18.63590795,48.85424318
782,2012-0056,Mozambique,Cabo Delgado,Storm,2012,3/3/2012,3,-12.45862046,39.36667124
783,2012-0113,Comoros,Domoni,Flood,2012,4/20/2012,4,-12.32394121,43.73359321
784,2012-0130,Rwanda,Nyabihu,Flood,2012,4/9/2012,5,-1.647527626,29.51057418
785,2012-0166,Kenya,Kitengela,Flood,2012,4/20/2012,73,-1.434412399,36.82230923
786,2012-0166,Kenya,Garsen,Flood,2012,4/20/2012,73,-2.336046819,39.50986146
787,2012-0166,Kenya,Kisumu,Flood,2012,4/20/2012,73,-0.162933047,34.83466421
788,2012-0166,Kenya,Suba,Flood,2012,4/20/2012,73,-0.637589225,34.09889389
789,2012-0166,Kenya,Nyando,Flood,2012,4/20/2012,73,-1.289752346,36.86696246
790,2012-0280,Sudan,Kassala,Flood,2012,8/1/2012,35,15.98884127,35.75058371
791,2012-0280,Sudan,White Nile,Flood,2012,8/1/2012,35,13.40506842,32.35100786
792,2012-0280,Sudan,Gadaref,Flood,2012,8/1/2012,35,14.17176499,35.21985351
793,2012-0302,Niger,Agadez,Flood,2012,7/15/2012,91,19.48356243,10.51824021
794,2012-0302,Niger,Diffa,Flood,2012,7/15/2012,91,15.86080846,13.21383166
795,2012-0302,Niger,Dosso,Flood,2012,7/15/2012,91,13.19821782,3.541880626
796,2012-0302,Niger,Maradi,Flood,2012,7/15/2012,91,14.11537985,7.299652875
797,2012-0302,Niger,Tahoua,Flood,2012,7/15/2012,91,15.77600267,5.227769099
798,2012-0302,Niger,Zinder,Flood,2012,7/15/2012,91,14.98556837,10.03037009
799,2012-0320,Benin,Karimama,Flood,2012,9/1/2012,4,11.95574484,2.748865354
800,2012-0347,Chad,Logone Oriental,Flood,2012,7/15/2012,20,8.203300409,16.40898281
801,2012-0362,Cameroon,Faro,Flood,2012,8/25/2012,15,8.246881654,12.87650724
802,2012-0366,Nigeria,Nassarrawa,Flood,2012,7/1/2012,363,8.498966396,8.189571934
803,2012-0366,Nigeria,Niger,Flood,2012,7/1/2012,363,9.93437545,5.599749648
804,2012-0366,Nigeria,Plateau,Flood,2012,7/1/2012,363,9.208963894,9.548720569
805,2012-0366,Nigeria,Adamawa,Flood,2012,7/1/2012,363,9.343554959,12.44482498
806,2012-0366,Nigeria,Bauchi,Flood,2012,7/1/2012,363,10.77576006,9.987113629
807,2012-0366,Nigeria,Taraba,Flood,2012,7/1/2012,363,8.033249602,10.82964825
808,2012-0366,Nigeria,Yobe,Flood,2012,7/1/2012,363,12.29652727,11.44253345
809,2012-0366,Nigeria,Jigawa,Flood,2012,7/1/2012,363,12.21567495,9.550513513
810,2012-0366,Nigeria,Kaduna,Flood,2012,7/1/2012,363,10.35507132,7.705680097
811,2012-0366,Nigeria,Kano,Flood,2012,7/1/2012,363,11.73558934,8.51260524
812,2012-0366,Nigeria,Katsina,Flood,2012,7/1/2012,363,12.37318097,7.629785229
813,2012-0366,Nigeria,Kebbi,Flood,2012,7/1/2012,363,11.7658034,4.500959545
814,2012-0366,Nigeria,Anambra,Flood,2012,7/1/2012,363,6.206837363,6.931034408
815,2012-0366,Nigeria,Ebonyi,Flood,2012,7/1/2012,363,6.266042279,8.002066075
816,2012-0366,Nigeria,Cross River,Flood,2012,7/1/2012,363,5.85599731,8.581700491
817,2012-0366,Nigeria,Lagos,Flood,2012,7/1/2012,363,6.526077403,3.553893496
818,2012-0380,Uganda,Agago,Flood,2012,8/20/2012,0,2.910842081,33.34734345
819,2012-0380,Uganda,Lamwo,Flood,2012,8/20/2012,0,3.547446409,32.72734653
820,2012-0441,Algeria,Tebessa,Flood,2012,8/31/2012,20,35.06193253,7.856513488
821,2012-0473,South Sudan,Jonglei,Flood,2012,9/7/2012,15,7.378792852,32.32764574
822,2012-0473,South Sudan,Unity,Flood,2012,9/7/2012,15,8.926421189,29.88578342
823,2012-0598,Malawi,Mangochi,Flood,2012,12/15/2012,4,-14.26112619,35.13529514
824,2012-0598,Malawi,Phalombe,Flood,2012,12/15/2012,4,-15.66947061,35.68908119
825,2012-0598,Malawi,Nsanje,Flood,2012,12/15/2012,4,-16.74704649,35.14269735
826,2012-9065,Angola,Bengo,Drought,2012,3/1/2012,0,-8.977739795,13.88141273
827,2012-9160,Chad,Kanem,Drought,2012,6/1/2012,0,15.13281125,15.26495581
828,2012-9304,Malawi,Balaka,Drought,2012,8/1/2012,0,-15.03643071,35.0561911
829,2013-0011,Malawi,Mangochi,Flood,2013,1/1/2013,3,-14.26241639,35.13732721
830,2013-0026,Seychelles,Anse Aux Pins,Storm,2013,2/7/2013,0,-4.688988009,55.51757672
831,2013-0026,Seychelles,Au Cap,Storm,2013,2/7/2013,0,-4.708434486,55.51727098
832,2013-0031,Botswana,Tsokootshaa,Flood,2013,1/16/2013,12,-24.61916965,25.93069829
833,2013-0031,Botswana,Tutume,Flood,2013,1/16/2013,12,-20.21743482,25.93892397
834,2013-0031,Botswana,Masunga,Flood,2013,1/16/2013,12,-21.01447465,27.56821981
835,2013-0031,Botswana,Sowa,Flood,2013,1/16/2013,12,-20.56514744,26.22470789
836,2013-0032,Madagascar,Morombe,Storm,2013,2/22/2013,42,-22.01707275,43.70346502
837,2013-0032,Madagascar,Menabe,Storm,2013,2/22/2013,42,-20.23062182,44.89535375
838,2013-0122,Ghana,Nanumba South,Flood,2013,3/3/2013,5,8.774493501,0.121013694
839,2013-0123,Kenya,Turkana,Flood,2013,3/10/2013,96,3.265351693,35.43301285
840,2013-0123,Kenya,West Pokot,Flood,2013,3/10/2013,96,1.730128266,35.24732925
841,2013-0123,Kenya,Baringo,Flood,2013,3/10/2013,96,0.67527177,35.94712117
842,2013-0123,Kenya,Marakwet,Flood,2013,3/10/2013,96,0.787741119,35.54612096
843,2013-0123,Kenya,Nyeri,Flood,2013,3/10/2013,96,-0.334688986,36.95617693
844,2013-0125,Ethiopia,Korahe,Flood,2013,4/10/2013,0,6.645310764,44.42047378
845,2013-0217,South Africa,Bishop Lavis,Storm,2013,6/1/2013,3,-33.89296367,18.59349281
846,2013-0280,Sudan,Khartoum,Flood,2013,8/1/2013,76,15.84371653,32.80459422
847,2013-0280,Sudan,Blue Nile,Flood,2013,8/1/2013,76,11.26783612,34.12527881
848,2013-0280,Sudan,White Nile,Flood,2013,8/1/2013,76,13.40506842,32.35100786
849,2013-0280,Sudan,Kassala,Flood,2013,8/1/2013,76,15.98884127,35.75058371
850,2013-0281,Kenya,Marigat,Flood,2013,8/5/2013,0,0.67527177,35.94712117
851,2013-0336,Niger,Maradi,Flood,2013,7/15/2013,32,14.11537985,7.299652875
852,2013-0336,Niger,Agadez,Flood,2013,7/15/2013,32,19.48356243,10.51824021
853,2013-0336,Niger,Dosso,Flood,2013,7/15/2013,32,13.19821782,3.541880626
854,2013-0336,Niger,Tahoua,Flood,2013,7/15/2013,32,15.77600267,5.227769099
855,2013-0336,Niger,Niamey,Flood,2013,7/15/2013,32,13.52929382,2.127571286
856,2013-0336,Niger,Zinder,Flood,2013,7/15/2013,32,14.98556837,10.03037009
857,2013-0368,Senegal,Fatick,Flood,2013,9/13/2013,8,14.16013181,-16.34494262
858,2013-0368,Senegal,Kaolack,Flood,2013,9/13/2013,8,13.97026542,-15.9316131
859,2013-0368,Senegal,Thies,Flood,2013,9/13/2013,8,14.83108166,-16.7552175
860,2013-0374,Mauritania,Rosso,Flood,2013,8/5/2013,8,16.65071869,-15.73040576
861,2013-0375,Benin,Karimama,Flood,2013,9/5/2013,0,11.95574484,2.748865354
862,2013-0377,Zambia,Nagoma,Flood,2013,1/1/2013,0,-14.99539839,26.60274004
863,2013-0438,Somalia,Qandala,Storm,2013,11/8/2013,162,11.04112429,50.08631979
864,2013-0534,Niger,Diffa,Flood,2013,11/3/2013,0,15.86080846,13.21383166
865,2013-0546,Libya,Tripoli,Flood,2013,11/30/2013,16,32.67436397,13.36828047
866,2013-9146,Namibia,Kavango,Drought,2013,1/1/2013,0,-18.36896362,19.74960216
867,2013-9478,Zimbabwe,Manicaland,Drought,2013,1/1/2013,0,-19.06116231,32.39751357
868,2014-0063,Burundi,Kinyinya,Flood,2014,2/19/2014,96,-3.626073777,30.36264475
869,2014-0063,Burundi,Kamenge,Flood,2014,2/19/2014,96,-3.346875346,29.38991189
870,2014-0063,Burundi,Kinama,Flood,2014,2/19/2014,96,-3.326946264,29.39244396
871,2014-0063,Burundi,Buterere,Flood,2014,2/19/2014,96,-3.332890738,29.33599637
872,2014-0063,Burundi,Ngagara,Flood,2014,2/19/2014,96,-3.359259086,29.35840654
873,2014-0066,Zimbabwe,Chivi,Flood,2014,1/20/2014,3,-20.4938609,30.57852573
874,2014-0066,Zimbabwe,Tsholotsho,Flood,2014,1/20/2014,3,-19.61801311,27.41828561
875,2014-0092,Comoros,Moheli,Storm,2014,3/27/2014,0,-12.2259034,44.44094576
876,2014-0099,South Africa,Gauteng,Flood,2014,3/1/2014,32,-26.10606905,28.12646848
877,2014-0099,South Africa,Limpopo,Flood,2014,3/1/2014,32,-23.78573005,29.28952133
878,2014-0099,South Africa,Mpumalanga,Flood,2014,3/1/2014,32,-25.87414315,30.29894995
879,2014-0264,Sudan,Khartoum,Flood,2014,7/25/2014,39,15.84371653,32.80459422
880,2014-0264,Sudan,Blue Nile,Flood,2014,7/25/2014,39,11.26783612,34.12527881
881,2014-0264,Sudan,Kassala,Flood,2014,7/25/2014,39,15.98884127,35.75058371
882,2014-0264,Sudan,Northern,Flood,2014,7/25/2014,39,19.56155667,29.3551228
883,2014-0264,Sudan,Sennar,Flood,2014,7/25/2014,39,12.89651755,34.0528914
884,2014-0289,Niger,Niamey,Flood,2014,6/1/2014,36,13.53081039,2.127508838
885,2014-0298,Algeria,Alger,Earthquake,2014,8/1/2014,6,36.707393,3.056515494
886,2014-0438,Lesotho,Leribe,Storm,2014,10/11/2014,0,-29.01732624,28.26411909
887,2014-0514,Zimbabwe,Manicaland,Flood,2014,12/1/2014,11,-19.06116231,32.39751357
888,2014-9196,Burkina Faso,Sahel province,Drought,2014,5/1/2014,0,14.14637059,-0.440068118
889,2014-9404,Kenya,Mandera,Drought,2014,1/1/2014,0,3.439001659,40.73546083
890,2014-9533,Madagascar,Androy,Drought,2014,11/1/2014,0,-24.82166781,45.43908551
891,2015-0011,Mozambique,Nampula,Flood,2015,1/1/2015,160,-14.96481585,39.24779415
892,2015-0011,Malawi,Nsanje,Flood,2015,1/1/2015,278,-16.74704649,35.14269735
893,2015-0011,Malawi,Chikwawa,Flood,2015,1/1/2015,278,-16.16657424,34.70983653
894,2015-0011,Malawi,Phalombe,Flood,2015,1/1/2015,278,-15.66947061,35.68908119
895,2015-0011,Malawi,Blantyre,Flood,2015,1/1/2015,278,-15.66959579,34.94532629
896,2015-0011,Malawi,Zomba,Flood,2015,1/1/2015,278,-15.39869489,35.4273079
897,2015-0011,Malawi,Thyolo,Flood,2015,1/1/2015,278,-16.10489336,35.14386574
898,2015-0011,Malawi,Mulanje,Flood,2015,1/1/2015,278,-15.9369444,35.50792739
899,2015-0011,Malawi,Chiradzulu,Flood,2015,1/1/2015,278,-15.74545653,35.21329337
900,2015-0011,Malawi,Machinga,Flood,2015,1/1/2015,278,-14.94298057,35.5674799
901,2015-0011,Malawi,Mangochi,Flood,2015,1/1/2015,278,-14.26112619,35.13529514
902,2015-0011,Malawi,Ntcheu,Flood,2015,1/1/2015,278,-14.81088288,34.71355335
903,2015-0011,Malawi,Salima,Flood,2015,1/1/2015,278,-13.70485052,34.43057514
904,2015-0011,Malawi,Karonga,Flood,2015,1/1/2015,278,-10.08045636,34.09218317
905,2015-0016,Madagascar,Andramasina,Storm,2015,1/16/2015,89,-19.29995223,47.74641137
906,2015-0016,Madagascar,Ankazobe,Storm,2015,1/16/2015,89,-18.16154882,47.05589812
907,2015-0016,Madagascar,Antananarivo Avaradrano,Storm,2015,1/16/2015,89,-19.01998955,47.51686911
908,2015-0016,Madagascar,Ambalavao,Storm,2015,1/16/2015,89,-21.87710163,46.7186064
909,2015-0016,Madagascar,Ambohimahasoa,Storm,2015,1/16/2015,89,-21.06745894,47.16843533
910,2015-0016,Madagascar,Mahabo,Storm,2015,1/16/2015,89,-20.63986947,45.15945057
911,2015-0016,Madagascar,Miandrivazo,Storm,2015,1/16/2015,89,-19.15806195,45.37584922
912,2015-0016,Madagascar,Vangaindrano,Storm,2015,1/16/2015,89,-23.55325037,47.39637476
913,2015-0016,Madagascar,Ikongo,Storm,2015,1/16/2015,89,-21.92944448,47.45054192
914,2015-0016,Madagascar,Mananjary,Storm,2015,1/16/2015,89,-21.20064377,48.09200635
915,2015-0074,Madagascar,Androy,Storm,2015,2/7/2015,6,-24.82166781,45.43908551
916,2015-0075,Angola,Bengo,Flood,2015,2/13/2015,5,-8.977739795,13.88141273
917,2015-0090,Angola,Luanda province,Flood,2015,3/9/2015,1,-8.979736465,13.31045103
918,2015-0153,Rwanda,Nyamasheke,Flood,2015,4/3/2015,2,-2.353312146,29.15517674
919,2015-0159,Kenya,Kisumu,Flood,2015,4/27/2015,13,-0.162933047,34.83466421
920,2015-0346,Burkina Faso,Ouagadougou,Flood,2015,8/4/2015,8,12.37367996,-1.536979778
921,2015-0368,Niger,Agadez,Flood,2015,7/25/2015,27,19.48541641,10.51799236
922,2015-0392,Sudan,Gadaref,Flood,2015,8/8/2015,20,14.17111221,35.22083441
923,2015-0448,Nigeria,Kano,Flood,2015,9/5/2015,53,11.73613018,8.513338298
924,2015-0477,Somalia,Galgaduud,Flood,2015,10/27/2015,0,5.124412009,46.78310013
925,2015-0480,Guinea,Coyah,Flood,2015,7/24/2015,9,9.742510368,-13.33728248
926,2015-0482,Algeria,Tindouf province,Flood,2015,10/16/2015,0,27.69669145,-6.062753361
927,2015-0544,Somalia,Bay,Flood,2015,3/1/2015,0,2.653014199,43.56644195
928,2015-0564,Kenya,Mt Elgon,Flood,2015,12/1/2015,112,0.931827294,34.59756026
929,2015-0605,Egypt,Alexandria province,Storm,2015,10/24/2015,6,30.8446065,29.74511632
930,2015-0606,Egypt,Behera,Storm,2015,11/3/2015,25,30.6294479,30.27628097
931,2015-9373,Sudan,Southern Kordofan,Drought,2015,8/1/2015,0,14.85324317,29.76498703
932,2015-9500,South Africa,KwaZulu-Natal,Drought,2015,1/1/2015,0,-28.7280623,30.72670577
933,2015-9505,Namibia,Erongo,Drought,2015,1/1/2015,0,-22.05386807,15.22795103
934,2015-9545,Ethiopia,Somali,Drought,2015,9/1/2015,0,6.918982846,43.33582439
935,2015-9616,Somalia,Sanaag,Drought,2015,8/1/2015,0,10.30455372,47.68233572
936,2016-0089,Kenya,Lodwar city,Flood,2016,3/10/2016,3,3.209010335,35.67957513
937,2016-0129,Somalia,Awdal,Flood,2016,4/6/2016,9,10.56443643,43.37818303
938,2016-0130,Uganda,Kyebando,Flood,2016,4/13/2016,0,0.911302187,31.10663467
939,2016-0131,Angola,Viana,Flood,2016,4/16/2016,23,-9.067350909,13.29226455
940,2016-0149,Rwanda,Gakenke,Flood,2016,1/1/2016,67,-1.698530562,29.78423662
941,2016-0247,Angola,Cuanza Sul,Flood,2016,3/1/2016,30,-10.82598035,15.04484941
942,2016-0248,Mozambique,Cabo Delgado province,Flood,2016,1/5/2016,16,-12.45862046,39.36667124
943,2016-0269,Niger,Tahoua,Flood,2016,6/1/2016,11,15.77673902,5.227257351
944,2016-0272,Mali,Gao,Flood,2016,7/11/2016,13,16.79331743,1.348131287
945,2016-0274,Sudan,Al Gezira,Flood,2016,6/1/2016,171,14.58234302,33.34535948
946,2016-0336,Nigeria,Akwa Ibom,Storm,2016,8/14/2016,28,4.912295098,7.838176699
947,2016-0337,Nigeria,Gwaram,Flood,2016,9/1/2016,18,11.17834227,9.991843635
948,2016-0359,Egypt,South Sinai,Storm,2016,10/27/2016,26,29.02165264,33.79978092
949,2016-0449,Senegal,Mbane,Flood,2016,7/1/2016,5,16.25289239,-15.55821449
950,2016-0478,South Africa,Gauteng,Flood,2016,11/9/2016,6,-26.10614694,28.12577898
951,2016-0523,Zimbabwe,Mangwe,Storm,2016,12/9/2016,31,-20.97603803,28.00825613
952,2016-0546,Mozambique,Maputo,Storm,2016,10/24/2016,12,-25.52759199,32.45011452
953,2016-9020,Madagascar,Ambovombe-Androy,Drought,2016,1/1/2016,0,-24.8628715,45.77960465
954,2016-9122,Mozambique,Magude,Drought,2016,1/1/2016,0,-24.70120887,32.43924289
955,2016-9452,Kenya,Kilifi,Drought,2016,6/1/2016,0,-3.17440402,39.68688818
956,2017-0051,Mozambique,Vilankulo,Storm,2017,2/15/2017,7,-22.14761761,35.30617928
957,2017-0079,Botswana,Kavimba,Flood,2017,2/18/2017,0,-18.51269688,24.80380033
958,2017-0083,Ghana,Brong Ahafo province,Storm,2017,3/19/2017,20,7.706088399,-1.657978191
959,2017-0094,Central African Republic,Kabo,Storm,2017,1/1/2017,0,8.035948412,18.8515145
960,2017-0106,Namibia,Oshana,Flood,2017,1/1/2017,0,-18.43234844,15.72277517
961,2017-0109,Angola,Luanda province,Flood,2017,3/21/2017,11,-8.979736465,13.31045103
962,2017-0272,Nigeria,Ekiti,Flood,2017,7/8/2017,20,7.702917745,5.313143042
963,2017-0367,Cameroon,Santchou,Flood,2017,8/4/2017,3,5.295685726,9.973916125
964,2017-0370,Niger,Agadez,Flood,2017,8/26/2017,56,19.48541641,10.51799236
965,2017-0384,Central African Republic,Kouango city,Flood,2017,8/23/2017,0,5.089900971,20.43754942
966,2017-0395,Uganda,Rubanda district,Flood,2017,9/20/2017,17,-1.178044283,29.86651122
967,2017-0415,Rwanda,Rusizi,Storm,2017,9/17/2017,3,-2.558645819,29.07939699
968,2017-0573,Sudan,Khartoum,Flood,2017,6/30/2017,25,15.84367916,32.80179655
969,2017-9208,Niger,Bosso,Drought,2017,5/1/2017,0,13.72742481,13.21607457
970,2017-9342,Chad,Chari Baguimi,Drought,2017,3/1/2017,0,11.23892046,16.33070894
971,2017-9343,Mauritania,Brakna,Drought,2017,4/1/2017,0,17.24770366,-13.40356412
972,2018-0008,Madagascar,Nosy Varika,Storm,2018,1/5/2018,73,-20.5643392,48.17135796
973,2018-0029,Mauritius,Rodrigues island,Storm,2018,1/15/2018,0,-19.71752962,63.42052677
974,2018-0048,Mozambique,Nampula,Flood,2018,1/16/2018,11,-14.96481585,39.24779415
975,2018-0064,Malawi,Karonga,Flood,2018,2/1/2018,1,-10.07970951,34.09101399
976,2018-0065,Burundi,Rugombo,Flood,2018,1/14/2018,0,-2.82193931,29.09470673
977,2018-0086,Madagascar,Mandritsara,Storm,2018,3/14/2018,21,-16.0323956,48.73982809
978,2018-0103,Botswana,Gweta,Flood,2018,2/23/2018,0,-21.53879673,26.27168272
979,2018-0104,Angola,Luanda,Flood,2018,2/22/2018,8,-8.979736465,13.31045103
980,2018-0104,Rwanda,Nyundo,Flood,2018,3/3/2018,24,-1.724484878,29.33731342
981,2018-0116,Kenya,Nairobi,Flood,2018,3/14/2018,15,-1.290546381,36.86666878
982,2018-0132,Kenya,Tana river,Flood,2018,3/14/2018,72,-1.524777551,39.41762555
983,2018-0162,Algeria,Tiaret,Flood,2018,4/24/2018,6,34.96510885,1.530423933
984,2018-0232,Niger,Maradi,Flood,2018,6/1/2018,36,14.11615306,7.299178277
985,2018-0292,Sudan,West Kordofan,Flood,2018,7/23/2018,23,11.76198174,28.40530921
986,2018-0365,Nigeria,Kogi,Flood,2018,9/20/2018,199,7.716356483,6.696042
987,2018-0387,Sudan,Kassala,Flood,2018,8/1/2018,23,15.98869069,35.75077515
